"nr","cod_lmi","cod_lmi_jud","cod_lmi_nat","cod_lmi_grupa","cod_lmi_val","cod_lmi_num","SIRUTA_judet","judet","SIRUTA_UAT","rang","UAT","SIRUTA","localitate","denumire","latitudine_y","longitudine_x","cota","adresa","observatii_adresa","cod_postal","strada_nume","strada_numar","tip_patrimoniu","program_arhitectura","tip_monument","datare","fotografiat","existent","constructie_noua","stare_generala","observatii","observatii_cc"
706,"CJ-II-a-A-07240","CJ","II","a","A",7240,127,"CLUJ",54975,"municipiu","CLUJ-NAPOCA",54984,"CLUJ-NAPOCA","Cetățuia Cluj-Napoca",46.774642,23.581701,394,"Zona delimitată de: limita estică a parcelei din str. Dragalina nr.70, str. Șerpuitoare nr.1-27 fundul de parcelă,, str. Șerpuitoare și str. Augustin Bunea, str. Călărașilor frontul nordic, str. Cetății frontul estic de la nr. 25 la nr. 55, limita vestică a parcelei din str. Galilei nr.18, Aleea scărilor, str. Dragalina frontul nordic de la Aleea scărilor la nr. 70",,400167,,,"Patrimoniu reprezentativ","Clădiri cu caracter militar (fortificații, cetăți etc.)","Fortificație Vauban",1716,,,,"Stare medie","Urmează a fi restaurată.",
707,"CJ-II-a-A-07241","CJ","II","a","A",7241,127,"CLUJ",54975,"municipiu","CLUJ-NAPOCA",54984,"CLUJ-NAPOCA","Fragmente din zidul primei incinte a orașului medieval",,,,"Străzile: Deleu, nr. 2-4, Doja Gheorghe, nr. 7 și 23-25 ,Toplița, nr.8-10, Piața Unirii nr.25, Matei Corvin nr.4 (subsol), Petroșani nr. 1,3, 21, 23, Pavel Chinezu nr.5, Isac Emil nr.10, Barițiu George, nr.25",,,,,"Patrimoniu reprezentativ",,"Zid",1316,,,,"Stare medie",,
708,"CJ-II-a-A-07242","CJ","II","a","A",7242,127,"CLUJ",54975,"municipiu","CLUJ-NAPOCA",54984,"CLUJ-NAPOCA","Fragment din zidul celei de a doua incinte a orașului medieval",,,,"Străzile: Potaissa nr.1-3, Iancu Avram, nr.1-27, Str. Republicii nr. 3-7, Universității, nr. 7- 9, Kogălniceanu M., nr.2-10, Baba Novac (extrema sudică și nr.15). Tipografiei nr.17",,,,,"Patrimoniu reprezentativ",,"Zid",1406,,,,"Stare medie",,
715,"CJ-II-a-A-07244","CJ","II","a","A",7244,127,"CLUJ",54975,"municipiu","CLUJ-NAPOCA",54984,"CLUJ-NAPOCA","Ansamblul urban ""Centrul istoric al orașului Cluj""",46.7695354,23.5898318,,"Zonă delimitată de: Gara Cluj, limita nordică a peronului, fontul nordic al str. Căii Ferate, podul feroviar peste Someș, str.Răsăritului până la str. Ecaterina Varga, str.Ecaterina Varga, frontul estic, str. Petrila, frontul sudic de la nr.14 la 2„ Parcul Feroviarilor limita estică, Parcul Feroviarilor limita sudică, malul stâng al Someșului între Str. Deltei și Str. Spitalului, str. Decebal, de la nr.105 la nr. 47și latura sudică a parcelei, str. Decebal nr. 50, latura sudică, Str. Traian nr.41, frontul vestic al Str. Traian de la nr. 41 la nr.11, latura sudică a parcelei str. Traian nr.14, traversare Someș, str. lașilor frontul nordic de la nr.23 pană la str. Constanța, str. Constanța frontul vestic de la nr.39 la nr.13, frontul nordic al str. Bălcescu nr 1-15, limita estică a parcelei str. Bălcescu nr 6, str. Argeș, frontul nordic de la nr 9 la nr 21, str. Paris, frontul vestic de la nr.7 până la nr.21 Decembrie, str. Pitești, frontul vestic, între Str. 21 Decembrie și Str. Dobrogeanu Gherea, fundul parcelelor Str. Dorobanților nr.23-35, str. Năvodari frontul vestic, latura estică a parcelei str. 21 Decembrie nr.40, latura estică a parcelei str. Dostoievski nr.47, str. Dostoievski frontul nordic de la 47 la nr. 27, str. Valeriu Braniște frontul vestic, str. Titulescu frontul nordic intre str. Valeriu Braniște și pta Cipariu, str. Anatole France frontul sud-vestic, limita dintre parcelele str. Delavrancea nr 6 și nr. 8, limita dintre parcelele str. Axente Severnr. 3 si 5, limita dintre parcelele str. Brîncoveanu nr. 3 și 5, limite dintre parcelele str. Brâncoveanu nr. 4 și 6, fundul de parcele str. Budai Deleanu nr. 21-43, str. Măcinului, frontul nordic între str. Budai Deleanu și Str. Zărnești, str. Maiorescu frontul nordic, str. Predeal, frontul vestic, intre str. Maiorescu și str. Ady Endre, str. Andy Endre fundul de parcelă de la nr.42 la 26, str. Vulcan fundul de parcelă de la nr 19 la 49, Calea Turzii nr.95-117, pe fundul de parcelă, limita între parcelele Calea Turzii nr 117 și 119, limita sudică și vestică a parcelei Calea Turzii nr 120, limita dintre parcelele str Șoimului nr. 6 și 8, Str. Șoimului frontul sudic de la nr. 6 pină la str. Republicii, str. Republicii nr. 104 până la 80 pe fundul de parcelă, extremitatea vestică str. Cireșilor frontul nordic, str.Pasteur, frontul estic între Str. Cireșilor și Speranței, str. Speranței, frontul nordic, de la str. Pasteur pînă la nr 23, limita de parcelă intre Str. Pasteur nr 23 și 25, fundul de parcelă la Str. Pasteur nr 23 la nr.1, fundul de parcelă str. Marinescu de la nr 41 la nr 25, limita intre parcele str. Marinescu nr 25 și 23, str. Marinescu frontul nord- vestic între nr 42 și 30, limita de parcelă intre str. Marinescu nr.30 și 28, limita de parcelă între parcelele str. Hașdeu nr 29 și 27, str. Hașdeu frontul sudic de la nr.29 pană la str. Mărginașă. Limita sudică a parcelei str Manășturului nr 3, limita dintre parcelele str. Plopilor nr 17-19, str. Plopilor frontul sudic de la nr. 19 pînă la Canalul Morii, Canalul Morii malul nordic intre Str. Berăriei și Salcâmului, limita sudică și vestică a parcelei Str. Salcîmului nr. 28, str. Uzinei Electirce, frontul estic intre Str. Salcâmului și Aleea Parcului, Aleea Parcului, frontul sudic între Str. Uzinei Electrice și str. Coșbuc, Str. Coșbuc între Aleea Parcului și Râul Someș, malul nordic al râului Someș până la podul Napoca, str. Dragalina, frontul sudic, limita estică a parcelei str. Dragalina nr 70, fundul de parcele str. Șerpuitoare nr. 1-27, limita estică a bazei sportive dintre Str. Șerpuitoare și str. Augustin Bunea, str. Călărașilor frontul nordic, str. Cetății frontul vestic între nr.32 și 2, str. Mecanicilor frontul estic până la Pta Gării, podul rutier peste calea ferată, limita sudică, vestică și nordică a parcelei str. Tudor Vladimirescu nr.2-4, str. Locomotivei, frontul vestic între Str. Maiacovschi și podul rutier peste calea ferată, Gara Cluj, limita nordică a peronului, în dreptul gării",,,,,"Patrimoniu reprezentativ",,,"sec. XIV-XIX",,,,"Stare medie",,
771,"CJ-II-a-A-07297","CJ","II","a","A",7297,127,"CLUJ",54975,"municipiu","CLUJ-NAPOCA",54984,"CLUJ-NAPOCA","Ansamblul clinicilor universitare",46.765427,23.583413,354,"Str. Clinicilor 15",,400006,,,"Patrimoniu reprezentativ","Clădire pentru sănătate",,"1900 -1904",,,,"Stare medie","În curs de restaurare la o parte din corpuri.",
780,"CJ-II-a-A-07305","CJ","II","a","A",7305,127,"CLUJ",54975,"municipiu","CLUJ-NAPOCA",54984,"CLUJ-NAPOCA","Mănăstirea Franciscanilor",46.772014,23.587996,346,"Str. Deleu 2-4",,400112,,,"Patrimoniu religios","Clădire de cult","Mănăstire","sec. XV-XVIII",,,,"Stare medie","În curs de restaurare.",
859,"CJ-II-a-A-07378","CJ","II","a","A",7378,127,"CLUJ",54975,"municipiu","CLUJ-NAPOCA",54984,"CLUJ-NAPOCA","Casele Profesorilor reformați",46.768257,23.594746,348,"Str. Kogălniceanu Mihail 13,15, 17,19",,400084,,,"Patrimoniu domestic urban","Clădire de locuit (unifamilială, colectivă ș.a.)","Locuire civilă","sec. XVIII",,,,"Stare medie",,
868,"CJ-II-a-A-07383","CJ","II","a","A",7383,127,"CLUJ",54975,"municipiu","CLUJ-NAPOCA",54984,"CLUJ-NAPOCA","Palatele ""Status-ului romano-catolic""",46.7700518,23.5913626,,"Str. Maniu luliu 1-6",,,,,"Patrimoniu religios",,,1902,,,,"Stare medie",,
869,"CJ-II-a-A-07383.01","CJ","II","a","A",7383.01,127,"CLUJ",54975,"municipiu","CLUJ-NAPOCA",54984,"CLUJ-NAPOCA","Palatele ""Status-ului romano-catolic""",46.770414,23.591047,350,"Str. Maniu luliu 1, 3 și 5",,400095,,,"Patrimoniu religios","Clădire administrativă (primărie, prefectură, guvern, minister ș.a.)",,1902,,,,"Stare medie",,
870,"CJ-II-a-A-07383.02","CJ","II","a","A",7383.02,127,"CLUJ",54975,"municipiu","CLUJ-NAPOCA",54984,"CLUJ-NAPOCA","Palatele ""Status-ului romano-catolic""",46.770209,23.591168,350,"Str. Maniu luliu 2, 4 și 6",,400095,,,"Patrimoniu religios","Clădire administrativă (primărie, prefectură, guvern, minister ș.a.)",,1902,,,,"Stare bună",,
984,"CJ-II-m-A-07241.01","CJ","II","m","A",7241.01,127,"CLUJ",54975,"municipiu","CLUJ-NAPOCA",54984,"CLUJ-NAPOCA","Turn și fragment din zidul primei incinte a orașului medieval",46.771098,23.589165,347,"Piața Unirii 25 și str.Toplița 10",,400113,,,"Patrimoniu reprezentativ","Clădiri cu caracter militar (fortificații, cetăți etc.)","Turn de apărare",1376,,,,"-","Inaccesibil.",
747,"CJ-II-m-A-07241.02","CJ","II","m","A",7241.02,127,"CLUJ",54975,"municipiu","CLUJ-NAPOCA",54984,"CLUJ-NAPOCA","Fragment din zidul roman suprapus de zidul primei incinte medievale",46.771876,23.585742,343,"Str. Barițiu George 25",,400027,,,"Patrimoniu reprezentativ",,"Zid","sec. XIII - XVI",,,,"-","Inaccesibil.",
938,"CJ-II-m-A-07241.03","CJ","II","m","A",7241.03,127,"CLUJ",54975,"municipiu","CLUJ-NAPOCA",54984,"CLUJ-NAPOCA","Fragment din zidul primei incinte a orașului medieval",46.770793,23.587515,347,"Str. Petroșani 1-3",,400022,,,"Patrimoniu reprezentativ","Clădiri cu caracter militar (fortificații, cetăți etc.)","Zid","sec. XIII",,,,"Stare medie","Str. Virgil Fulicea 1-3.",
940,"CJ-II-m-A-07241.04","CJ","II","m","A",7241.04,127,"CLUJ",54975,"municipiu","CLUJ-NAPOCA",54984,"CLUJ-NAPOCA","Fragment din zidul primei incinte a orașului medieval",46.770017,23.585481,349,"Str. Petroșani 21-23",,400022,,,"Patrimoniu reprezentativ","Clădiri cu caracter militar (fortificații, cetăți etc.)","Zid","sec. XIII",,,,"Stare bună","Str. Virgil Fulicea 21-23.",
849,"CJ-II-m-A-07241.05","CJ","II","m","A",7241.05,127,"CLUJ",54975,"municipiu","CLUJ-NAPOCA",54984,"CLUJ-NAPOCA","Fragment din zidul primei incinte a orașului medieval",46.770542,23.585385,347,"Str. Isac Emil 10 și str. Pavel Chinezu 5, în curtea Liceului G. Barițiu",,400023,,,"Patrimoniu reprezentativ","Clădiri cu caracter militar (fortificații, cetăți etc.)","Zid","sec. XIII -XV",,,,"Stare medie",,
779,"CJ-II-m-A-07241.06","CJ","II","m","A",7241.06,127,"CLUJ",54975,"municipiu","CLUJ-NAPOCA",54984,"CLUJ-NAPOCA","Fragment din zidul primei incinte a orașului medieval",46.772215,23.588387,347,"Str. Deleu 2-4, Str. Doja Gheorghe 17-25",,400112,,,"Patrimoniu reprezentativ",,"Zid","sec. XIII -XV",,,,"Stare medie","Str. Deleu 2-4, Strada Regele Ferdinand 17-25",
838,"CJ-II-m-A-07242.01","CJ","II","m","A",7242.01,127,"CLUJ",54975,"municipiu","CLUJ-NAPOCA",54984,"CLUJ-NAPOCA","Bastionul Postăvarilor",46.76665,23.589349,353,"Str. Iancu Avram 9",,400089,,,"Patrimoniu reprezentativ","Clădiri cu caracter militar (fortificații, cetăți etc.)","Turn de apărare","sec. XV",,,,"Stare medie",,
840,"CJ-II-m-A-07242.02","CJ","II","m","A",7242.02,127,"CLUJ",54975,"municipiu","CLUJ-NAPOCA",54984,"CLUJ-NAPOCA","Bastionul Cizmarilor",46.766646,23.590748,354,"Str. Iancu Avram 13",,400083,,,"Patrimoniu reprezentativ","Clădiri cu caracter militar (fortificații, cetăți etc.)","Turn de apărare","sec. XV",,,,"Stare medie","Construcție asemănătoare cu un turn lipită alte clădiri. Posibil Bastionul Cizmarilor.",
955,"CJ-II-m-A-07242.03","CJ","II","m","A",7242.03,127,"CLUJ",54975,"municipiu","CLUJ-NAPOCA",54984,"CLUJ-NAPOCA","Turnul Pompierilor",46.773388,23.590913,341,"Str. Tipografiei 17",,400101,,,"Patrimoniu reprezentativ","Clădiri cu caracter militar (fortificații, cetăți etc.)","Turn de apărare","1405, partea superioară sec. XIX",,,,"Stare medie","În curs de restaurare.",
843,"CJ-II-m-A-07242.04","CJ","II","m","A",7242.04,127,"CLUJ",54975,"municipiu","CLUJ-NAPOCA",54984,"CLUJ-NAPOCA","Turnul Zidarilor și fragment din zidul celei de a doua incinte a orașului medieval",46.766674,23.591996,352,"Str. Iancu Avram 17",,400083,,,"Patrimoniu reprezentativ","Clădiri cu caracter militar (fortificații, cetăți etc.)","Turn de apărare","sec. XV",,,,"-","Inaccesibil.",
942,"CJ-II-m-A-07242.05","CJ","II","m","A",7242.05,127,"CLUJ",54975,"municipiu","CLUJ-NAPOCA",54984,"CLUJ-NAPOCA","Fragment din zidul celei de a doua incinte a orașului medieval",46.766639,23.589228,353,"Str. Potaissa 1-3",,400090,,,"Patrimoniu reprezentativ","Clădiri cu caracter militar (fortificații, cetăți etc.)",,"sec. XV",,,,"Stare medie",,
743,"CJ-II-m-A-07242.06","CJ","II","m","A",7242.06,127,"CLUJ",54975,"municipiu","CLUJ-NAPOCA",54984,"CLUJ-NAPOCA","Fragment din zidul celei de a doua incinte a orașului medieval",46.770968,23.595806,346,"Str. Baba Novac 15",,400080,,,"Patrimoniu reprezentativ","Clădiri cu caracter militar (fortificații, cetăți etc.)","Zid",1406,,,,"-","Posibil înglobat în construcție. Piatră inscripționată vizibilă la casa de la nr. 15.",
744,"CJ-II-m-A-07271","CJ","II","m","A",7271,127,"CLUJ",54975,"municipiu","CLUJ-NAPOCA",54984,"CLUJ-NAPOCA","Bastionul Bethlen (fost Turnul Croitorilor)",46.768054,23.597476,345,"Str. Baba Novac 35",,400080,,,"Patrimoniu reprezentativ","Clădiri cu caracter militar (fortificații, cetăți etc.)","Turn de apărare","sec. XV-XVII, ref.sec. XIX",,,,"Stare foarte bună",,
759,"CJ-II-m-A-07285","CJ","II","m","A",7285,127,"CLUJ",54975,"municipiu","CLUJ-NAPOCA",54984,"CLUJ-NAPOCA","Palatul Tholdalagy-Korda, azi Universitatea ""Babeș-Bolyai"" -administrația tehnică",46.768693,23.593652,348,"Str. Brătianu I.C. 14",,400079,,,"Patrimoniu reprezentativ","Clădire de locuit (unifamilială, colectivă ș.a.)","Locuire civilă","sec. XIX",,,,"Stare medie",,
764,"CJ-II-m-A-07290","CJ","II","m","A",7290,127,"CLUJ",54975,"municipiu","CLUJ-NAPOCA",54984,"CLUJ-NAPOCA","Casa Aurarului",46.768843,23.593491,347,"Str. Brătianu I.C. 27",,400079,,,"Patrimoniu domestic urban","Clădire de locuit (unifamilială, colectivă ș.a.)","Locuire civilă","sec. XVIII",,,,"Stare medie",,
778,"CJ-II-m-A-07304","CJ","II","m","A",7304,127,"CLUJ",54975,"municipiu","CLUJ-NAPOCA",54984,"CLUJ-NAPOCA","Biserica ""Nașterea Maicii Domnului""",46.785305,23.653034,321,"Str. Dârjan Traian 8",,400402,,,"Patrimoniu religios","Clădire de cult","Biserică",1750,,,,"Stare bună","Alterată major prin intervenții.",
781,"CJ-II-m-A-07305.01","CJ","II","m","A",7305.01,127,"CLUJ",54975,"municipiu","CLUJ-NAPOCA",54984,"CLUJ-NAPOCA","Biserica franciscană",46.772003,23.587812,346,"Str. Deleu 2-4",,400112,,,"Patrimoniu religios","Clădire de cult","Biserică","sec. XV-XVIII",,,,"Stare medie",,
815,"CJ-II-m-A-07338","CJ","II","m","A",7338,127,"CLUJ",54975,"municipiu","CLUJ-NAPOCA",54984,"CLUJ-NAPOCA","Casa mică Banffy",46.769999,23.594732,345,"Bd. Eroilor 32",,400129,,,"Patrimoniu domestic urban","Clădire de locuit (unifamilială, colectivă ș.a.)","Locuire civilă","sec. XVI - XIX",,,,"Stare bună",,
832,"CJ-II-m-A-07355","CJ","II","m","A",7355,127,"CLUJ",54975,"municipiu","CLUJ-NAPOCA",54984,"CLUJ-NAPOCA","Teatrul Național",46.770195,23.59744,347,"Piața Iancu Avram 2",,400098,,,"Patrimoniu reprezentativ","Clădire cu alte funcțiuni",,"1904 -1906",,,,"Stare bună",,
852,"CJ-II-m-A-07371","CJ","II","m","A",7371,127,"CLUJ",54975,"municipiu","CLUJ-NAPOCA",54984,"CLUJ-NAPOCA","Liceul ""Báthory"", fost liceu al Piariștilor",46.767207,23.59144,354,"Str. Kogălniceanu Mihail 2 și str. Universității 7-9",,400084,,,"Patrimoniu reprezentativ","Clădire pentru învățământ",,"1817-1821",,,,"Stare medie",,
856,"CJ-II-m-A-07375","CJ","II","m","A",7375,127,"CLUJ",54975,"municipiu","CLUJ-NAPOCA",54984,"CLUJ-NAPOCA","Palatul Teleki",46.76793,23.593479,348,"Str. Kogălniceanu Mihail 7",,400084,,,"Patrimoniu reprezentativ","Clădire de locuit (unifamilială, colectivă ș.a.)","Locuire civilă","1790 -1795",,,,"Stare medie","În curs de restaurare.",
860,"CJ-II-m-A-07378.01","CJ","II","m","A",7378.01,127,"CLUJ",54975,"municipiu","CLUJ-NAPOCA",54984,"CLUJ-NAPOCA","Casă",46.768125,23.594521,348,"Str. Kogălniceanu Mihail 13",,400084,,,"Patrimoniu domestic urban","Clădire de locuit (unifamilială, colectivă ș.a.)","Locuire civilă","1790 -1802",,,,"Stare medie",,
862,"CJ-II-m-A-07378.02","CJ","II","m","A",7378.02,127,"CLUJ",54975,"municipiu","CLUJ-NAPOCA",54984,"CLUJ-NAPOCA","Casă",46.768158,23.594708,348,"Str. Kogălniceanu Mihail 15",,400084,,,"Patrimoniu domestic urban","Clădire de locuit (unifamilială, colectivă ș.a.)","Locuire civilă","1790 -1802",,,,"Stare medie",,
864,"CJ-II-m-A-07378.03","CJ","II","m","A",7378.03,127,"CLUJ",54975,"municipiu","CLUJ-NAPOCA",54984,"CLUJ-NAPOCA","Casă",46.768193,23.594861,348,"Str. Kogălniceanu Mihail 17",,400084,,,"Patrimoniu domestic urban","Clădire de locuit (unifamilială, colectivă ș.a.)","Locuire civilă","1790 -1802",,,,"Stare medie",,
863,"CJ-II-m-A-07380","CJ","II","m","A",7380,127,"CLUJ",54975,"municipiu","CLUJ-NAPOCA",54984,"CLUJ-NAPOCA","Biserica reformată Matia",46.768132,23.595592,347,"Str. Kogălniceanu Mihail 16",,400084,,,"Patrimoniu religios","Clădire de cult","Biserică","1486 -1494, ref.1644",,,,"Stare medie",,
876,"CJ-II-m-A-07388","CJ","II","m","A",7388,127,"CLUJ",54975,"municipiu","CLUJ-NAPOCA",54984,"CLUJ-NAPOCA","Casa universitarilor, azi Colegiul academic",46.76785,23.592546,351,"Str. ""Emmanuel de Martonne"" 1 și str. Brătianu I.C. 4",,400090,,,"Patrimoniu reprezentativ","Clădire pentru învățământ",,"1928 - 1936",,,,"Stare bună",,
881,"CJ-II-m-A-07393","CJ","II","m","A",7393,127,"CLUJ",54975,"municipiu","CLUJ-NAPOCA",54984,"CLUJ-NAPOCA","Casa Matia, azi Academia de Arte Vizuale ""Ion Andreescu""",46.771082,23.587482,346,"Str. Matei Corvin 6",,400112,,,"Patrimoniu reprezentativ","Clădire pentru turism","Han","sec. XV-XVIII",,,,"Stare foarte bună","În curs de restaurare. Interior inaccesibil.",
884,"CJ-II-m-A-07396","CJ","II","m","A",7396,127,"CLUJ",54975,"municipiu","CLUJ-NAPOCA",54984,"CLUJ-NAPOCA","Biserica Mănăștur - Calvaria",46.761264,23.557954,359,"Str. Mănășturului 12",,400372,,,"Patrimoniu religios","Clădire de cult","Biserică","sec. XIII - XIX",,,,"Stare bună","Aleea Grădini Mănăștur.",
948,"CJ-II-m-A-07458","CJ","II","m","A",7458,127,"CLUJ",54975,"municipiu","CLUJ-NAPOCA",54984,"CLUJ-NAPOCA","Casa Tătaru",46.775612,23.570297,385,"Str. Rosetti 17",,400306,,,"Patrimoniu domestic urban","Clădire de locuit (unifamilială, colectivă ș.a.)","Locuire civilă",1929,,,,"Stare medie","În curs de restaurare.",
960,"CJ-II-m-A-07469","CJ","II","m","A",7469,127,"CLUJ",54975,"municipiu","CLUJ-NAPOCA",54984,"CLUJ-NAPOCA","Biserica romano-catolică ""Sf. Mihail""",46.769993,23.589526,347,"Piața Unirii 0",,400133,,,"Patrimoniu religios","Clădire de cult","Biserică","1349 -1480",,,,"Stare medie","În curs de restaurare.",
988,"CJ-II-m-A-07497","CJ","II","m","A",7497,127,"CLUJ",54975,"municipiu","CLUJ-NAPOCA",54984,"CLUJ-NAPOCA","Palatul Banffy, azi Muzeul de Artă",46.7706,23.590386,348,"Piața Unirii 30",,400098,,,"Patrimoniu reprezentativ","Clădire de locuit (unifamilială, colectivă ș.a.)","Locuire civilă","1774 -1785",,,,"Stare medie","În curs de restaurare.",
989,"CJ-II-m-A-07498","CJ","II","m","A",7498,127,"CLUJ",54975,"municipiu","CLUJ-NAPOCA",54984,"CLUJ-NAPOCA","Casa Wolphard Kakas, azi Universitatea de Arte Vizuale ""Ion Andreescu"" și banca ""Société Générale""",46.769776,23.590853,349,"Piața Unirii 31",,400098,,,"Patrimoniu domestic urban","Clădire de locuit (unifamilială, colectivă ș.a.)","Locuire civilă","sec. XVI - XIX",,,,"Stare medie",,
990,"CJ-II-m-A-07499","CJ","II","m","A",7499,127,"CLUJ",54975,"municipiu","CLUJ-NAPOCA",54984,"CLUJ-NAPOCA","Biserica Piariștilor, azi biserica romano-catolică ""Sf. Treime""",46.767894,23.590477,353,"Str. Universității 5",,400091,,,"Patrimoniu religios","Clădire de cult","Biserică","1718 -1724",,,,"Stare bună",,
799,"CJ-II-a-B-07324","CJ","II","a","B",7324,127,"CLUJ",54975,"municipiu","CLUJ-NAPOCA",54984,"CLUJ-NAPOCA","Mănăstirea minoriților",46.769255,23.592526,347,"Bd. Eroilor 8-10",,400129,,,"Patrimoniu religios","Clădire de cult","Mănăstire","sec. XVI - XIX",,,,"Stare bună",,
716,"CJ-II-a-B-07415","CJ","II","a","B",7415,127,"CLUJ",54975,"municipiu","CLUJ-NAPOCA",54984,"CLUJ-NAPOCA","Ansamblul urban ""Piața Mihai Viteazul""",46.7745771,23.5878778,,"Zona delimitată de: limita vestică a parcelei din piața Mihai Viteazul nr.1, str. Doja nr.38 până la Someș , cheiul drept sudic al râului Someș, de la podul Gh. Doja până la str. Iașilor nr. 16 , str. Iașilor frontul sudic (identic cu piața Mihai Viteazul nr.1)",,,,,"Patrimoniu reprezentativ",,,"sec. XVIII-XIX",,,,"Stare medie",,
945,"CJ-II-a-B-07455","CJ","II","a","B",7455,127,"CLUJ",54975,"municipiu","CLUJ-NAPOCA",54984,"CLUJ-NAPOCA","Grădina Botanică",46.761963,23.588785,392,"Str. Republicii 42",,400015,,,"Patrimoniu reprezentativ","Amenajare peisajeră-agrement (parc, grădină, scuar ș.a.)",,1920,,,,"Stare bună",,
951,"CJ-II-a-B-07461","CJ","II","a","B",7461,127,"CLUJ",54975,"municipiu","CLUJ-NAPOCA",54984,"CLUJ-NAPOCA","Secția în aer liber a Muzeului Etnografic al Transilvaniei",46.777136,23.560323,385,"Str. Tăietura Turcului, Dealul Hoia",,400285,,,"Patrimoniu reprezentativ","Amenajare peisajeră-agrement (parc, grădină, scuar ș.a.)",,,,,,"-","Inaccesibil. (la momentul vizitei era închis, deși conform orarului trebuia să fie deschis)",
710,"CJ-II-m-B-07243.01","CJ","II","m","B",7243.01,127,"CLUJ",54975,"municipiu","CLUJ-NAPOCA",54984,"CLUJ-NAPOCA","Ateliere pictură (fostă expoziție)",46.770401,23.578802,346,"Parcul Central",,400376,,,"Patrimoniu reprezentativ","Clădire pentru învățământ",,1940,,,,"Stare medie",,
711,"CJ-II-m-B-07243.02","CJ","II","m","B",7243.02,127,"CLUJ",54975,"municipiu","CLUJ-NAPOCA",54984,"CLUJ-NAPOCA","Fântână arteziană",46.768784,23.577183,344,"Parcul Central",,400376,,,"Patrimoniu reprezentativ","Amenajare peisajeră-agrement (parc, grădină, scuar ș.a.)",,1897,,,,"Stare bună",,
712,"CJ-II-m-B-07243.03","CJ","II","m","B",7243.03,127,"CLUJ",54975,"municipiu","CLUJ-NAPOCA",54984,"CLUJ-NAPOCA","Chioșc fanfară",46.768738,23.576692,344,"Parcul Central",,400376,,,"Patrimoniu reprezentativ","Amenajare peisajeră-agrement (parc, grădină, scuar ș.a.)",,1897,,,,"Stare bună",,
713,"CJ-II-m-B-07243.04","CJ","II","m","B",7243.04,127,"CLUJ",54975,"municipiu","CLUJ-NAPOCA",54984,"CLUJ-NAPOCA","Pavilionul de patinaj",46.7681,23.575969,343,"Parcul Central",,400376,,,"Patrimoniu reprezentativ","Clădire cu alte funcțiuni",,1897,,,,"Stare bună","Se referă la clădirea ”Chios”.",
714,"CJ-II-m-B-07243.05","CJ","II","m","B",7243.05,127,"CLUJ",54975,"municipiu","CLUJ-NAPOCA",54984,"CLUJ-NAPOCA","Kiosk",46.768917,23.577868,344,"Parcul Central",,400376,,,"Patrimoniu reprezentativ","Clădire cu alte funcțiuni",,1897,,,,"Stare foarte bună","Se referă la clădirea ”Casino”.",
741,"CJ-II-m-B-07245","CJ","II","m","B",7245,127,"CLUJ",54975,"municipiu","CLUJ-NAPOCA",54984,"CLUJ-NAPOCA","Biserica romano-catolică ""Sf. Petru""",46.776756,23.607309,336,"Bd. 21 Decembrie 1989 136 -138",,400604,,,"Patrimoniu religios","Clădire de cult","Biserică","sec. XIV-XIX",,,,"Stare bună",,
718,"CJ-II-m-B-07246","CJ","II","m","B",7246,127,"CLUJ",54975,"municipiu","CLUJ-NAPOCA",54984,"CLUJ-NAPOCA","Hotel Melody",46.770863,23.590179,347,"Bd. 21 Decembrie 1989 2 și Piața Unirii nr.29",,400094,,,"Patrimoniu reprezentativ","Clădire cu alte funcțiuni",,"sec. XVI - XIX",,,,"Stare medie",,
719,"CJ-II-m-B-07247","CJ","II","m","B",7247,127,"CLUJ",54975,"municipiu","CLUJ-NAPOCA",54984,"CLUJ-NAPOCA","Casă",46.77142,23.590832,346,"Bd. 21 Decembrie 1989 3",,400105,,,"Patrimoniu domestic urban","Clădire de locuit (unifamilială, colectivă ș.a.)","Locuire civilă","sec. XV - XVI",,,,"Stare medie",,
720,"CJ-II-m-B-07248","CJ","II","m","B",7248,127,"CLUJ",54975,"municipiu","CLUJ-NAPOCA",54984,"CLUJ-NAPOCA","Casă",46.771053,23.590677,347,"Bd. 21 Decembrie 1989 4",,400094,,,"Patrimoniu domestic urban","Clădire de locuit (unifamilială, colectivă ș.a.)","Locuire civilă","sec. XVI - XIX",,,,"Stare medie",,
721,"CJ-II-m-B-07249","CJ","II","m","B",7249,127,"CLUJ",54975,"municipiu","CLUJ-NAPOCA",54984,"CLUJ-NAPOCA","Colegiul unitarian, azi Liceul sanitar",46.771675,23.591463,345,"Bd. 21 Decembrie 1989 7",,400105,,,"Patrimoniu reprezentativ","Clădire pentru învățământ",,"sec. XVIII-XIX",,,,"Stare medie","Se referă la Liceul Teoretic Brassai Sámuel.",
722,"CJ-II-m-B-07250","CJ","II","m","B",7250,127,"CLUJ",54975,"municipiu","CLUJ-NAPOCA",54984,"CLUJ-NAPOCA","Liceul ""Brassai""",46.77199,23.592429,344,"Bd. 21 Decembrie 1989 9",,400105,,,"Patrimoniu reprezentativ","Clădire pentru învățământ",,"sec. XIX",,,,"Stare medie","Se referă la Liceul János Zsigmond.",
723,"CJ-II-m-B-07251","CJ","II","m","B",7251,127,"CLUJ",54975,"municipiu","CLUJ-NAPOCA",54984,"CLUJ-NAPOCA","Biserica unitariană",46.771778,23.591789,345,"Bd. 21 Decembrie 1989 9",,400105,,,"Patrimoniu religios","Clădire de cult","Biserică","sec. XVIII",,,,"Stare medie",,
724,"CJ-II-m-B-07252","CJ","II","m","B",7252,127,"CLUJ",54975,"municipiu","CLUJ-NAPOCA",54984,"CLUJ-NAPOCA","Casa profesorilor unitarieni",46.771169,23.591106,347,"Bd. 21 Decembrie 1989 10 și str.Bolyai János nr.10",,400094,,,"Patrimoniu religios","Clădire de locuit (unifamilială, colectivă ș.a.)","Locuire civilă","sec. XVIII-XIX",,,,"Stare bună",,
725,"CJ-II-m-B-07253","CJ","II","m","B",7253,127,"CLUJ",54975,"municipiu","CLUJ-NAPOCA",54984,"CLUJ-NAPOCA","Casă",46.771261,23.591385,346,"Bd. 21 Decembrie 1989 12",,400094,,,"Patrimoniu domestic urban","Clădire de locuit (unifamilială, colectivă ș.a.)","Locuire civilă","sec. XVIII-XIX",,,,"Stare medie",,
726,"CJ-II-m-B-07254","CJ","II","m","B",7254,127,"CLUJ",54975,"municipiu","CLUJ-NAPOCA",54984,"CLUJ-NAPOCA","Reședința episcopului unitarian",46.771289,23.591549,346,"Bd. 21 Decembrie 1989 14",,400094,,,"Patrimoniu religios","Clădire de locuit (unifamilială, colectivă ș.a.)","Locuire civilă","sec. XV - XIX",,,,"Stare bună",,
727,"CJ-II-m-B-07255","CJ","II","m","B",7255,127,"CLUJ",54975,"municipiu","CLUJ-NAPOCA",54984,"CLUJ-NAPOCA","Casa parohială a bisericii unitariene",46.771376,23.591782,346,"Bd. 21 Decembrie 1989 16-18",,400094,,,"Patrimoniu religios","Clădire de locuit (unifamilială, colectivă ș.a.)","Locuire civilă","sec. XVIII",,,,"Stare medie","Casa de la nr. 16 alterată prin supraetajare.",
728,"CJ-II-m-B-07256","CJ","II","m","B",7256,127,"CLUJ",54975,"municipiu","CLUJ-NAPOCA",54984,"CLUJ-NAPOCA","Sediul P.S.D.",46.772283,23.593822,342,"Bd. 21 Decembrie 1989 19",,400105,,,"Patrimoniu domestic urban","Clădire de locuit (unifamilială, colectivă ș.a.)","Locuire civilă","sec. XVIII-XIX",,,,"-","Locație eronată. Clădirea de la adresa din listă este de secol XX.",
729,"CJ-II-m-B-07257","CJ","II","m","B",7257,127,"CLUJ",54975,"municipiu","CLUJ-NAPOCA",54984,"CLUJ-NAPOCA","Casă",46.771305,23.592044,346,"Bd. 21 Decembrie 1989 20",,400094,,,"Patrimoniu domestic urban","Clădire de locuit (unifamilială, colectivă ș.a.)","Locuire civilă","sec. XIX",,,,"Stare medie","Poziție probabilă.",
730,"CJ-II-m-B-07258","CJ","II","m","B",7258,127,"CLUJ",54975,"municipiu","CLUJ-NAPOCA",54984,"CLUJ-NAPOCA","Sediul Redacției revistei ""Korunk"" în perioada interbelică",46.771373,23.592159,346,"Bd. 21 Decembrie 1989 20",,400094,,,"Patrimoniu domestic urban","Clădire administrativă (primărie, prefectură, guvern, minister ș.a.)","Locuire civilă","sec. XIX",,,,"Stare medie","Poziție probabilă.",
731,"CJ-II-m-B-07259","CJ","II","m","B",7259,127,"CLUJ",54975,"municipiu","CLUJ-NAPOCA",54984,"CLUJ-NAPOCA","Casă",46.771521,23.592334,345,"Bd. 21 Decembrie 1989 24",,400094,,,"Patrimoniu domestic urban","Clădire de locuit (unifamilială, colectivă ș.a.)","Locuire civilă","sec. XIX",,,,"Stare medie","Poziție probabilă.",
732,"CJ-II-m-B-07260","CJ","II","m","B",7260,127,"CLUJ",54975,"municipiu","CLUJ-NAPOCA",54984,"CLUJ-NAPOCA","Casă",46.771597,23.592626,345,"Bd. 21 Decembrie 1989 28",,400094,,,"Patrimoniu domestic urban","Clădire de locuit (unifamilială, colectivă ș.a.)","Locuire civilă","sec. XVII - XVIII",,,,"Stare medie","Locație eronată. Clădirea de la adresa din listă este de secol XX.",
733,"CJ-II-m-B-07261","CJ","II","m","B",7261,127,"CLUJ",54975,"municipiu","CLUJ-NAPOCA",54984,"CLUJ-NAPOCA","Casă cu portal",46.771689,23.592905,344,"Bd. 21 Decembrie 1989 32",,400094,,,"Patrimoniu domestic urban","Clădire de locuit (unifamilială, colectivă ș.a.)","Locuire civilă",1559,,,,"Stare medie","Locație eronată. Clădirea de la adresa din listă este de secol XIX.",
734,"CJ-II-m-B-07262","CJ","II","m","B",7262,127,"CLUJ",54975,"municipiu","CLUJ-NAPOCA",54984,"CLUJ-NAPOCA","Casă",46.771728,23.59308,343,"Bd. 21 Decembrie 1989 34",,400094,,,"Patrimoniu domestic urban","Clădire de locuit (unifamilială, colectivă ș.a.)","Locuire civilă",1920,,,,"Stare bună","Poziție probabilă.",
735,"CJ-II-m-B-07263","CJ","II","m","B",7263,127,"CLUJ",54975,"municipiu","CLUJ-NAPOCA",54984,"CLUJ-NAPOCA","Casă",46.771784,23.593299,343,"Bd. 21 Decembrie 1989 36",,400094,,,"Patrimoniu domestic urban","Clădire de locuit (unifamilială, colectivă ș.a.)","Locuire civilă","sec. XIX",,,,"Stare medie","Poziție probabilă.",
736,"CJ-II-m-B-07264","CJ","II","m","B",7264,127,"CLUJ",54975,"municipiu","CLUJ-NAPOCA",54984,"CLUJ-NAPOCA","Biserica reformată",46.773899,23.597454,338,"Bd. 21 Decembrie 1989 41",,400124,,,"Patrimoniu religios","Clădire de cult","Biserică","1821 - 1859",,,,"Stare bună",,
737,"CJ-II-m-B-07265","CJ","II","m","B",7265,127,"CLUJ",54975,"municipiu","CLUJ-NAPOCA",54984,"CLUJ-NAPOCA","Casă",46.771933,23.593926,342,"Bd. 21 Decembrie 1989 44",,400094,,,"Patrimoniu domestic urban","Clădire de locuit (unifamilială, colectivă ș.a.)","Locuire civilă","sec. XVI-XVIII",,,,"Stare medie","Poziție probabilă.",
738,"CJ-II-m-B-07266","CJ","II","m","B",7266,127,"CLUJ",54975,"municipiu","CLUJ-NAPOCA",54984,"CLUJ-NAPOCA","Casă",46.771971,23.594343,343,"Bd. 21 Decembrie 1989 48",,400094,,,"Patrimoniu domestic urban","Clădire de locuit (unifamilială, colectivă ș.a.)","Locuire civilă","sec. XVIII",,,,"Stare medie","Poziție probabilă.",
739,"CJ-II-m-B-07267","CJ","II","m","B",7267,127,"CLUJ",54975,"municipiu","CLUJ-NAPOCA",54984,"CLUJ-NAPOCA","Prefectura Cluj-Napoca",46.772278,23.595273,343,"Bd. 21 Decembrie 1989 59 și Piața Avram lancu nr.12",,400094,,,"Patrimoniu administrativ","Clădire administrativă (primărie, prefectură, guvern, minister ș.a.)",,1910,,,,"Stare medie","Bd. 21 Decembrie 1989 58 și Piața Avram lancu nr.12",
740,"CJ-II-m-B-07268","CJ","II","m","B",7268,127,"CLUJ",54975,"municipiu","CLUJ-NAPOCA",54984,"CLUJ-NAPOCA","Cazarmă, azi unitate militară",46.774981,23.602761,335,"Bd. 21 Decembrie 1989 106",,400124,,,"Patrimoniu administrativ","Clădire cu destinație specială (poliție, S.R.I., armată ș.a.)",,"sec. XIX",,,,"Stare medie",,
742,"CJ-II-m-B-07269","CJ","II","m","B",7269,127,"CLUJ",54975,"municipiu","CLUJ-NAPOCA",54984,"CLUJ-NAPOCA","Casă",46.770578,23.595691,345,"Str. Baba Novac 8, Bd. Eroilor nr.51",,400129,,,"Patrimoniu domestic urban","Clădire de locuit (unifamilială, colectivă ș.a.)","Locuire civilă","sec. XVIII",,,,"Stare medie",,
941,"CJ-II-m-B-07270","CJ","II","m","B",7270,127,"CLUJ",54975,"municipiu","CLUJ-NAPOCA",54984,"CLUJ-NAPOCA","Casă",46.769623,23.596726,345,"Str. Piața Ștefan cel Mare 14, Str. Baba Novac 27 și Str.l.C.Brătianu 55",,400192,,,"Patrimoniu domestic urban","Clădire de locuit (unifamilială, colectivă ș.a.)","Locuire civilă","1830 -1840",,,,"Stare medie",,
745,"CJ-II-m-B-07272","CJ","II","m","B",7272,127,"CLUJ",54975,"municipiu","CLUJ-NAPOCA",54984,"CLUJ-NAPOCA","Clinicile de neurologie și neuro-psihiatrie infantilă",46.763165,23.584705,379,"Str. Babeș Victor 43",,400012,,,"Patrimoniu reprezentativ","Clădire pentru sănătate",,1900,,,,"Stare medie",,
746,"CJ-II-m-B-07273","CJ","II","m","B",7273,127,"CLUJ",54975,"municipiu","CLUJ-NAPOCA",54984,"CLUJ-NAPOCA","Casă",46.773681,23.58758,341,"Str. Barițiu George 2",,400027,,,"Patrimoniu domestic urban","Clădire de locuit (unifamilială, colectivă ș.a.)","Locuire civilă",1900,,,,"Stare medie",,
748,"CJ-II-m-B-07274","CJ","II","m","B",7274,127,"CLUJ",54975,"municipiu","CLUJ-NAPOCA",54984,"CLUJ-NAPOCA","Institutul Politehnic",46.772005,23.58558,343,"Str. Barițiu George 25",,400027,,,"Patrimoniu reprezentativ","Clădire pentru învățământ",,1894,,,,"Stare foarte bună",,
749,"CJ-II-m-B-07275","CJ","II","m","B",7275,127,"CLUJ",54975,"municipiu","CLUJ-NAPOCA",54984,"CLUJ-NAPOCA","Institutul Politehnic",46.772331,23.585139,343,"Str. Barițiu George 28",,400027,,,"Patrimoniu reprezentativ","Clădire pentru învățământ",,1895,,,,"Stare foarte bună",,
750,"CJ-II-m-B-07276","CJ","II","m","B",7276,127,"CLUJ",54975,"municipiu","CLUJ-NAPOCA",54984,"CLUJ-NAPOCA","Biserica ""Sf. Treime"", din Deal",46.765345,23.58894,362,"Str. Bisericii Ortodoxe 10",,400090,,,"Patrimoniu religios","Clădire de cult","Biserică","sec. XVIII",,,,"Stare foarte bună",,
751,"CJ-II-m-B-07277","CJ","II","m","B",7277,127,"CLUJ",54975,"municipiu","CLUJ-NAPOCA",54984,"CLUJ-NAPOCA","Biserica ""învierea Domnului"", Bob",46.768628,23.587749,349,"Str. Bob 5",,400014,,,"Patrimoniu religios","Clădire de cult","Biserică","1800 -1803",,,,"Stare medie","În curs de restaurare.",
752,"CJ-II-m-B-07278","CJ","II","m","B",7278,127,"CLUJ",54975,"municipiu","CLUJ-NAPOCA",54984,"CLUJ-NAPOCA","Casa în care s-a născut Bolyai János",46.769855,23.592229,347,"Str. Bolyai János 1 și Bd.Eroilor nr.9",,400096,,,"Patrimoniu domestic urban","Clădire de locuit (unifamilială, colectivă ș.a.)","Locuire civilă","sec. XV - XIX",,,,"Stare bună",,
753,"CJ-II-m-B-07279","CJ","II","m","B",7279,127,"CLUJ",54975,"municipiu","CLUJ-NAPOCA",54984,"CLUJ-NAPOCA","Casă",46.769901,23.592427,346,"Str. Bolyai János 2 și str.Eroilor nr.1l",,400096,,,"Patrimoniu domestic urban","Clădire de locuit (unifamilială, colectivă ș.a.)","Locuire civilă","sec. XV - XIX",,,,"Stare bună",,
754,"CJ-II-m-B-07280","CJ","II","m","B",7280,127,"CLUJ",54975,"municipiu","CLUJ-NAPOCA",54984,"CLUJ-NAPOCA","Casă",46.770032,23.592272,346,"Str. Bolyai János 2-4",,400096,,,"Patrimoniu domestic urban","Clădire de locuit (unifamilială, colectivă ș.a.)","Locuire civilă","sec. XV - XIX",,,,"Stare medie",,
755,"CJ-II-m-B-07281","CJ","II","m","B",7281,127,"CLUJ",54975,"municipiu","CLUJ-NAPOCA",54984,"CLUJ-NAPOCA","Casă",46.776324,23.598122,335,"Str. Borzești 1",,400184,,,"Patrimoniu domestic urban","Clădire de locuit (unifamilială, colectivă ș.a.)","Locuire civilă",1901,,,,"Stare medie","Adresa actuală: strada Nicolae Cristea nr. 1 (nume de stradă schimbat).",
756,"CJ-II-m-B-07282","CJ","II","m","B",7282,127,"CLUJ",54975,"municipiu","CLUJ-NAPOCA",54984,"CLUJ-NAPOCA","Casă stil baroc",46.768412,23.592631,349,"Str. Brătianu I.C. 6",,400079,,,"Patrimoniu domestic urban","Clădire de locuit (unifamilială, colectivă ș.a.)","Locuire civilă","sec. XVIII",,,,"Stare medie",,
757,"CJ-II-m-B-07283","CJ","II","m","B",7283,127,"CLUJ",54975,"municipiu","CLUJ-NAPOCA",54984,"CLUJ-NAPOCA","Casă stil baroc",46.768465,23.592836,349,"Str. Brătianu I.C. 8",,400079,,,"Patrimoniu domestic urban","Clădire de locuit (unifamilială, colectivă ș.a.)","Locuire civilă","sec. XVIII",,,,"Stare medie",,
758,"CJ-II-m-B-07284","CJ","II","m","B",7284,127,"CLUJ",54975,"municipiu","CLUJ-NAPOCA",54984,"CLUJ-NAPOCA","Casă",46.768513,23.593004,348,"Str. Brătianu I.C. 10",,400079,,,"Patrimoniu domestic urban","Clădire de locuit (unifamilială, colectivă ș.a.)","Locuire civilă","sec. XIX",,,,"Stare medie",,
760,"CJ-II-m-B-07286","CJ","II","m","B",7286,127,"CLUJ",54975,"municipiu","CLUJ-NAPOCA",54984,"CLUJ-NAPOCA","Casă",46.768768,23.594051,347,"Str. Brătianu I.C. 16",,400079,,,"Patrimoniu domestic urban","Clădire de locuit (unifamilială, colectivă ș.a.)","Locuire civilă","sec. XVIII",,,,"Stare medie",,
761,"CJ-II-m-B-07287","CJ","II","m","B",7287,127,"CLUJ",54975,"municipiu","CLUJ-NAPOCA",54984,"CLUJ-NAPOCA","Casă",46.768808,23.594332,347,"Str. Brătianu I.C. 18",,400079,,,"Patrimoniu domestic urban","Clădire de locuit (unifamilială, colectivă ș.a.)","Locuire civilă","sec. XVIII",,,,"Stare medie",,
762,"CJ-II-m-B-07288","CJ","II","m","B",7288,127,"CLUJ",54975,"municipiu","CLUJ-NAPOCA",54984,"CLUJ-NAPOCA","""Casa Beldi"", azi clădire administrativă",46.768915,23.594763,346,"Str. Brătianu I.C. 22",,400079,,,"Patrimoniu domestic urban","Clădire de locuit (unifamilială, colectivă ș.a.)","Locuire civilă","sec. XVIII",,,,"Stare medie",,
763,"CJ-II-m-B-07289","CJ","II","m","B",7289,127,"CLUJ",54975,"municipiu","CLUJ-NAPOCA",54984,"CLUJ-NAPOCA","Casă",46.768989,23.595082,345,"Str. Brătianu I.C. 24",,400079,,,"Patrimoniu domestic urban","Clădire de locuit (unifamilială, colectivă ș.a.)","Locuire civilă","sec. XVIII",,,,"Stare medie",,
765,"CJ-II-m-B-07291","CJ","II","m","B",7291,127,"CLUJ",54975,"municipiu","CLUJ-NAPOCA",54984,"CLUJ-NAPOCA","Casă",46.769239,23.596331,345,"Str. Brătianu I.C. 34",,400079,,,"Patrimoniu domestic urban","Clădire de locuit (unifamilială, colectivă ș.a.)","Locuire civilă","sec. XIX",,,,"Stare medie",,
766,"CJ-II-m-B-07292","CJ","II","m","B",7292,127,"CLUJ",54975,"municipiu","CLUJ-NAPOCA",54984,"CLUJ-NAPOCA","Casa Kós Károly",46.792423,23.585926,360,"Str. Breaza 14",,400253,,,"Patrimoniu domestic urban","Clădire de locuit (unifamilială, colectivă ș.a.)","Locuire civilă",1900,,,,"Stare bună",,
767,"CJ-II-m-B-07293","CJ","II","m","B",7293,127,"CLUJ",54975,"municipiu","CLUJ-NAPOCA",54984,"CLUJ-NAPOCA","Moara veche de hârtie",46.764076,23.555259,347,"Str. Calvaria 32",,400567,,,"Patrimoniu preindustrial prelucrător","Clădire pentru industrie","Moară","sec. XVIII",,,,"Colaps","Posibil în zona Plopilor 68. Poziție probabilă.",
768,"CJ-II-m-B-07294","CJ","II","m","B",7294,127,"CLUJ",54975,"municipiu","CLUJ-NAPOCA",54984,"CLUJ-NAPOCA","Casă",46.770998,23.586959,347,"Str. Clemenceau Georges 1",,400021,,,"Patrimoniu domestic urban","Clădire de locuit (unifamilială, colectivă ș.a.)","Locuire civilă","sec. XVII - XVIII",,,,"Stare bună",,
769,"CJ-II-m-B-07295","CJ","II","m","B",7295,127,"CLUJ",54975,"municipiu","CLUJ-NAPOCA",54984,"CLUJ-NAPOCA","Casă cu elemente de Renaștere",46.770899,23.586602,346,"Str. Clemenceau Georges 3",,400021,,,"Patrimoniu domestic urban","Clădire de locuit (unifamilială, colectivă ș.a.)","Locuire civilă","sec. XVI",,,,"Stare foarte bună",,
770,"CJ-II-m-B-07296","CJ","II","m","B",7296,127,"CLUJ",54975,"municipiu","CLUJ-NAPOCA",54984,"CLUJ-NAPOCA","Biblioteca Centrală Universitară",46.766972,23.585109,353,"Str. Clinicilor 2",,400006,,,"Patrimoniu reprezentativ","Clădire pentru învățământ",,"1906 -1908",,,,"Stare bună",,
772,"CJ-II-m-B-07298","CJ","II","m","B",7298,127,"CLUJ",54975,"municipiu","CLUJ-NAPOCA",54984,"CLUJ-NAPOCA","Casă",46.765588,23.576512,345,"Str. Coșbuc George 2",,400375,,,"Patrimoniu domestic urban","Clădire de locuit (unifamilială, colectivă ș.a.)","Locuire civilă","sec. XVIII",,,,"Stare foarte bună",,
773,"CJ-II-m-B-07299","CJ","II","m","B",7299,127,"CLUJ",54975,"municipiu","CLUJ-NAPOCA",54984,"CLUJ-NAPOCA","Casă",46.772997,23.59231,342,"Str. Curie Frederic Joliot 3",,400106,,,"Patrimoniu domestic urban","Clădire de locuit (unifamilială, colectivă ș.a.)","Locuire civilă","sec. XX",,,,"Stare foarte bună",,
774,"CJ-II-m-B-07300","CJ","II","m","B",7300,127,"CLUJ",54975,"municipiu","CLUJ-NAPOCA",54984,"CLUJ-NAPOCA","Casa Kovary László",46.771362,23.586618,347,"Str. Daicoviciu Constantin 1",,400020,,,"Patrimoniu domestic urban","Clădire de locuit (unifamilială, colectivă ș.a.)","Locuire civilă","sec. XIX",,,,"Stare medie",,
775,"CJ-II-m-B-07301","CJ","II","m","B",7301,127,"CLUJ",54975,"municipiu","CLUJ-NAPOCA",54984,"CLUJ-NAPOCA","Casă",46.771315,23.586362,347,"Str. Daicoviciu Constantin 3",,400020,,,"Patrimoniu domestic urban","Clădire de locuit (unifamilială, colectivă ș.a.)","Locuire civilă","sec. XVIII-XIX",,,,"Stare bună",,
776,"CJ-II-m-B-07302","CJ","II","m","B",7302,127,"CLUJ",54975,"municipiu","CLUJ-NAPOCA",54984,"CLUJ-NAPOCA","Casă",46.771283,23.586259,347,"Str. Daicoviciu Constantin 5",,400020,,,"Patrimoniu domestic urban","Clădire de locuit (unifamilială, colectivă ș.a.)","Locuire civilă","sec. XVIII-XIX",,,,"Stare medie",,
777,"CJ-II-m-B-07303","CJ","II","m","B",7303,127,"CLUJ",54975,"municipiu","CLUJ-NAPOCA",54984,"CLUJ-NAPOCA","Institutul Politehnic",46.771049,23.585236,347,"Str. Daicoviciu Constantin 15",,400020,,,"Patrimoniu domestic urban","Clădire pentru învățământ",,"sec. XIX",,,,"Stare foarte bună",,
717,"CJ-II-m-B-07306","CJ","II","m","B",7306,127,"CLUJ",54975,"municipiu","CLUJ-NAPOCA",54984,"CLUJ-NAPOCA","Biserica și casa parohială Evanghelică",46.771276,23.590151,346,"Bd. 21 Decembrie 1989 1",,400105,,,"Patrimoniu religios","Clădire de cult","Biserică","1816 -1822",,,,"Stare medie","În curs de restaurare.",
782,"CJ-II-m-B-07307","CJ","II","m","B",7307,127,"CLUJ",54975,"municipiu","CLUJ-NAPOCA",54984,"CLUJ-NAPOCA","Casa barocă",46.771538,23.590295,346,"Str. Doja Gheorghe 4",,400110,,,"Patrimoniu domestic urban","Clădire de locuit (unifamilială, colectivă ș.a.)","Locuire civilă","sec. XVI-XVIII",,,,"Stare medie","Strada Regele Ferdinand",
783,"CJ-II-m-B-07308","CJ","II","m","B",7308,127,"CLUJ",54975,"municipiu","CLUJ-NAPOCA",54984,"CLUJ-NAPOCA","Casă cu elemente renascentiste",46.771537,23.589496,346,"Str. Doja Gheorghe 5",,400110,,,"Patrimoniu reprezentativ","Clădire de locuit (unifamilială, colectivă ș.a.)","Locuire civilă","sec. XVI-XVIII",,,,"Stare medie","Strada Regele Ferdinand",
785,"CJ-II-m-B-07309","CJ","II","m","B",7309,127,"CLUJ",54975,"municipiu","CLUJ-NAPOCA",54984,"CLUJ-NAPOCA","Casă",46.772303,23.589038,345,"Str. Doja Gheorghe 19",,400110,,,"Patrimoniu domestic urban","Clădire de locuit (unifamilială, colectivă ș.a.)","Locuire civilă","sf. sec. XIX",,,,"Stare medie","Strada Regele Ferdinand",
784,"CJ-II-m-B-07310","CJ","II","m","B",7310,127,"CLUJ",54975,"municipiu","CLUJ-NAPOCA",54984,"CLUJ-NAPOCA","Hotel ""Pannónia""",46.772216,23.589052,345,"Str. Doja Gheorghe 17",,400110,,,"Patrimoniu reprezentativ","Clădire pentru turism",,"sec. XVII - XIX",,,,"Stare medie","Strada Regele Ferdinand",
786,"CJ-II-m-B-07311","CJ","II","m","B",7311,127,"CLUJ",54975,"municipiu","CLUJ-NAPOCA",54984,"CLUJ-NAPOCA","Casă",46.772526,23.588859,345,"Str. Doja Gheorghe 25",,400110,,,"Patrimoniu domestic urban","Clădire de locuit (unifamilială, colectivă ș.a.)","Locuire civilă","sec. XVIII",,,,"Stare medie","Strada Regele Ferdinand",
787,"CJ-II-m-B-07312","CJ","II","m","B",7312,127,"CLUJ",54975,"municipiu","CLUJ-NAPOCA",54984,"CLUJ-NAPOCA","Poștă",46.773095,23.58833,345,"Str. Doja Gheorghe 33",,400110,,,"Patrimoniu reprezentativ","Clădire cu alte funcțiuni",,"sec. XIX",,,,"Stare medie","Strada Regele Ferdinand",
788,"CJ-II-m-B-07313","CJ","II","m","B",7313,127,"CLUJ",54975,"municipiu","CLUJ-NAPOCA",54984,"CLUJ-NAPOCA","Casa cu stema familiei Báthory",46.773111,23.588791,344,"Str. Doja Gheorghe 34",,400110,,,"Patrimoniu domestic urban","Clădire de locuit (unifamilială, colectivă ș.a.)","Locuire civilă","sf. sec. XIX",,,,"Stare medie","Strada Regele Ferdinand",
789,"CJ-II-m-B-07314","CJ","II","m","B",7314,127,"CLUJ",54975,"municipiu","CLUJ-NAPOCA",54984,"CLUJ-NAPOCA","Palatul Széki",46.773848,23.587619,341,"Str. Doja Gheorghe 37",,400027,,,"Patrimoniu reprezentativ","Clădire cu funcțiuni mixte (se precizează care funcțiuni și în ce proporție)",,1893,,,,"Stare bună","Strada Regele Ferdinand",
790,"CJ-II-m-B-07315","CJ","II","m","B",7315,127,"CLUJ",54975,"municipiu","CLUJ-NAPOCA",54984,"CLUJ-NAPOCA","Palatul Babos",46.774174,23.588066,341,"Str. Doja Gheorghe 38 și Piața Mihai Viteazu 1",,400110,,,"Patrimoniu reprezentativ","Clădire cu funcțiuni mixte (se precizează care funcțiuni și în ce proporție)",,"1889 -1900",,,,"Stare bună","Strada Regele Ferdinand",
791,"CJ-II-m-B-07316","CJ","II","m","B",7316,127,"CLUJ",54975,"municipiu","CLUJ-NAPOCA",54984,"CLUJ-NAPOCA","Tribunalul și Curtea de Apel",46.771002,23.598696,344,"Calea Dorobanților 24 și Piața Ștefan cel Mare 1",,400121,,,"Patrimoniu reprezentativ","Clădire cu destinație specială (poliție, S.R.I., armată ș.a.)",,1902,,,,"Stare bună","Calea Dorobanților 2-4 și Piața Ștefan cel Mare 1",
792,"CJ-II-m-B-07317","CJ","II","m","B",7317,127,"CLUJ",54975,"municipiu","CLUJ-NAPOCA",54984,"CLUJ-NAPOCA","CasaTeleki",46.769656,23.590932,349,"Bd. Eroilor 1 și Piața Unirii 32",,400129,,,"Patrimoniu domestic urban","Clădire de locuit (unifamilială, colectivă ș.a.)","Locuire civilă","sec. XV-XVIII",,,,"Stare bună",,
793,"CJ-II-m-B-07318","CJ","II","m","B",7318,127,"CLUJ",54975,"municipiu","CLUJ-NAPOCA",54984,"CLUJ-NAPOCA","Casă",46.769138,23.59156,349,"Bd. Eroilor 2",,400129,,,"Patrimoniu domestic urban","Clădire de locuit (unifamilială, colectivă ș.a.)","Locuire civilă","1830 -1840",,,,"Stare medie",,
794,"CJ-II-m-B-07319","CJ","II","m","B",7319,127,"CLUJ",54975,"municipiu","CLUJ-NAPOCA",54984,"CLUJ-NAPOCA","Casă",46.769616,23.591502,349,"Bd. Eroilor 3",,400129,,,"Patrimoniu domestic urban","Clădire de locuit (unifamilială, colectivă ș.a.)","Locuire civilă","sec. XVI - XIX",,,,"Stare bună",,
795,"CJ-II-m-B-07320","CJ","II","m","B",7320,127,"CLUJ",54975,"municipiu","CLUJ-NAPOCA",54984,"CLUJ-NAPOCA","Casă",46.769214,23.591776,348,"Bd. Eroilor 4 și str. Brătianu I.C. 19",,400129,,,"Patrimoniu domestic urban","Clădire de locuit (unifamilială, colectivă ș.a.)","Locuire civilă","sec. XV-XVIII",,,,"Stare medie",,
796,"CJ-II-m-B-07321","CJ","II","m","B",7321,127,"CLUJ",54975,"municipiu","CLUJ-NAPOCA",54984,"CLUJ-NAPOCA","Casă",46.769655,23.591702,349,"Bd. Eroilor 5",,400129,,,"Patrimoniu domestic urban","Clădire de locuit (unifamilială, colectivă ș.a.)","Locuire civilă","sec. XV-XVIII",,,,"Stare bună",,
797,"CJ-II-m-B-07322","CJ","II","m","B",7322,127,"CLUJ",54975,"municipiu","CLUJ-NAPOCA",54984,"CLUJ-NAPOCA","Casă",46.769266,23.592008,348,"Bd. Eroilor 6-8 și str. Brătianu I.C. 21-23",,400129,,,"Patrimoniu domestic urban","Clădire de locuit (unifamilială, colectivă ș.a.)","Locuire civilă","sec. XVIII-XIX",,,,"Stare medie",,
798,"CJ-II-m-B-07323","CJ","II","m","B",7323,127,"CLUJ",54975,"municipiu","CLUJ-NAPOCA",54984,"CLUJ-NAPOCA","Casă",46.76971,23.591879,348,"Bd. Eroilor 7",,400129,,,"Patrimoniu domestic urban","Clădire de locuit (unifamilială, colectivă ș.a.)","Locuire civilă","sec. XVI - XIX",,,,"Stare medie",,
801,"CJ-II-m-B-07324.01","CJ","II","m","B",7324.01,127,"CLUJ",54975,"municipiu","CLUJ-NAPOCA",54984,"CLUJ-NAPOCA","Biserica mănăstirii minorite, azi catedrala greco-catolică",46.769351,23.592674,347,"Bd. Eroilor 10",,400129,,,"Patrimoniu religios","Clădire de cult","Biserică","sec. XVIII",,,,"Stare medie",,
800,"CJ-II-m-B-07324.02","CJ","II","m","B",7324.02,127,"CLUJ",54975,"municipiu","CLUJ-NAPOCA",54984,"CLUJ-NAPOCA","Claustrul mănăstirii minoriților",46.769391,23.592443,347,"Bd. Eroilor 8 și str. Brătianu I.C. 25",,400129,,,"Patrimoniu religios","Clădire de cult","Claustru","sec. XV - XIX",,,,"Stare medie",,
802,"CJ-II-m-B-07325","CJ","II","m","B",7325,127,"CLUJ",54975,"municipiu","CLUJ-NAPOCA",54984,"CLUJ-NAPOCA","Casă barocă cu elemente gotice",46.769521,23.592927,346,"Bd. Eroilor 12 și str.Tomis 1",,400129,,,"Patrimoniu domestic urban","Clădire de locuit (unifamilială, colectivă ș.a.)","Locuire civilă","sec. XV - XIX",,,,"Stare medie","Bd. Eroilor 12 și str.Hermann Oberth 1",
803,"CJ-II-m-B-07326","CJ","II","m","B",7326,127,"CLUJ",54975,"municipiu","CLUJ-NAPOCA",54984,"CLUJ-NAPOCA","Casă",46.769949,23.592602,346,"Bd. Eroilor 13",,400129,,,"Patrimoniu domestic urban","Clădire de locuit (unifamilială, colectivă ș.a.)","Locuire civilă","sec. XV - XVI",,,,"Stare medie",,
804,"CJ-II-m-B-07327","CJ","II","m","B",7327,127,"CLUJ",54975,"municipiu","CLUJ-NAPOCA",54984,"CLUJ-NAPOCA","Casă",46.769947,23.592751,345,"Bd. Eroilor 15",,400129,,,"Patrimoniu domestic urban","Clădire de locuit (unifamilială, colectivă ș.a.)","Locuire civilă","sec. XV - XIX",,,,"Stare bună",,
805,"CJ-II-m-B-07328","CJ","II","m","B",7328,127,"CLUJ",54975,"municipiu","CLUJ-NAPOCA",54984,"CLUJ-NAPOCA","Casa Tricesimei",46.769659,23.593369,345,"Bd. Eroilor 16",,400129,,,"Patrimoniu reprezentativ","Clădire financiar-comerț",,"sec. XVI - XIX",,,,"Stare medie",,
806,"CJ-II-m-B-07329","CJ","II","m","B",7329,127,"CLUJ",54975,"municipiu","CLUJ-NAPOCA",54984,"CLUJ-NAPOCA","Casă",46.769973,23.592857,345,"Bd. Eroilor 17",,400129,,,"Patrimoniu domestic urban","Clădire de locuit (unifamilială, colectivă ș.a.)","Locuire civilă","sec. XV - XIX",,,,"Stare medie",,
807,"CJ-II-m-B-07330","CJ","II","m","B",7330,127,"CLUJ",54975,"municipiu","CLUJ-NAPOCA",54984,"CLUJ-NAPOCA","Casă",46.769726,23.593719,345,"Bd. Eroilor 18",,400129,,,"Patrimoniu domestic urban","Clădire de locuit (unifamilială, colectivă ș.a.)","Locuire civilă","sec. XIX",,,,"Stare bună",,
808,"CJ-II-m-B-07331","CJ","II","m","B",7331,127,"CLUJ",54975,"municipiu","CLUJ-NAPOCA",54984,"CLUJ-NAPOCA","Casă",46.770013,23.59298,345,"Bd. Eroilor 19",,400129,,,"Patrimoniu domestic urban","Clădire de locuit (unifamilială, colectivă ș.a.)","Locuire civilă","înc. sec. XIX",,,,"Stare bună",,
809,"CJ-II-m-B-07332","CJ","II","m","B",7332,127,"CLUJ",54975,"municipiu","CLUJ-NAPOCA",54984,"CLUJ-NAPOCA","Casa Katona",46.7698,23.593935,345,"Bd. Eroilor 20",,400129,,,"Patrimoniu domestic urban","Clădire de locuit (unifamilială, colectivă ș.a.)","Locuire civilă","sec. XIX",,,,"Stare medie",,
810,"CJ-II-m-B-07333","CJ","II","m","B",7333,127,"CLUJ",54975,"municipiu","CLUJ-NAPOCA",54984,"CLUJ-NAPOCA","Casă",46.770058,23.593165,345,"Bd. Eroilor 21",,400129,,,"Patrimoniu domestic urban","Clădire de locuit (unifamilială, colectivă ș.a.)","Locuire civilă","sec. XVI - XIX",,,,"Stare medie",,
811,"CJ-II-m-B-07334","CJ","II","m","B",7334,127,"CLUJ",54975,"municipiu","CLUJ-NAPOCA",54984,"CLUJ-NAPOCA","Fosta casă a breslei cizmarilor",46.770112,23.593384,344,"Bd. Eroilor 23-25",,400129,,,"Patrimoniu reprezentativ","Clădire financiar-comerț",,"sec. XVI - XIX",,,,"Stare medie",,
812,"CJ-II-m-B-07335","CJ","II","m","B",7335,127,"CLUJ",54975,"municipiu","CLUJ-NAPOCA",54984,"CLUJ-NAPOCA","Casă",46.77017,23.593589,344,"Bd. Eroilor 27",,400129,,,"Patrimoniu domestic urban","Clădire de locuit (unifamilială, colectivă ș.a.)","Locuire civilă","sec. XVI - XIX",,,,"Stare medie",,
813,"CJ-II-m-B-07336","CJ","II","m","B",7336,127,"CLUJ",54975,"municipiu","CLUJ-NAPOCA",54984,"CLUJ-NAPOCA","Casă",46.770186,23.593721,344,"Bd. Eroilor 29",,400129,,,"Patrimoniu domestic urban","Clădire de locuit (unifamilială, colectivă ș.a.)","Locuire civilă","sec. XVI - XIX",,,,"Stare medie",,
814,"CJ-II-m-B-07337","CJ","II","m","B",7337,127,"CLUJ",54975,"municipiu","CLUJ-NAPOCA",54984,"CLUJ-NAPOCA","Casă",46.770187,23.593849,344,"Bd. Eroilor 31",,400129,,,"Patrimoniu domestic urban","Clădire de locuit (unifamilială, colectivă ș.a.)","Locuire civilă","sec. XVI - XX",,,,"Stare medie",,
816,"CJ-II-m-B-07339","CJ","II","m","B",7339,127,"CLUJ",54975,"municipiu","CLUJ-NAPOCA",54984,"CLUJ-NAPOCA","Casă",46.770272,23.594164,344,"Bd. Eroilor 33",,400129,,,"Patrimoniu domestic urban","Clădire de locuit (unifamilială, colectivă ș.a.)","Locuire civilă","sec. XVI - XIX",,,,"Stare medie",,
817,"CJ-II-m-B-07340","CJ","II","m","B",7340,127,"CLUJ",54975,"municipiu","CLUJ-NAPOCA",54984,"CLUJ-NAPOCA","Casă",46.770323,23.59455,344,"Bd. Eroilor 37",,400129,,,"Patrimoniu domestic urban","Clădire de locuit (unifamilială, colectivă ș.a.)","Locuire civilă","sec. XV - XIX",,,,"Stare medie",,
818,"CJ-II-m-B-07341","CJ","II","m","B",7341,127,"CLUJ",54975,"municipiu","CLUJ-NAPOCA",54984,"CLUJ-NAPOCA","Casă",46.77015,23.595286,345,"Bd. Eroilor 38",,400129,,,"Patrimoniu domestic urban","Clădire de locuit (unifamilială, colectivă ș.a.)","Locuire civilă",1920,,,,"Stare medie",,
819,"CJ-II-m-B-07342","CJ","II","m","B",7342,127,"CLUJ",54975,"municipiu","CLUJ-NAPOCA",54984,"CLUJ-NAPOCA","Casă",46.770214,23.595555,345,"Bd. Eroilor 42",,400129,,,"Patrimoniu domestic urban","Clădire de locuit (unifamilială, colectivă ș.a.)","Locuire civilă","sec. XX",,,,"Stare medie",,
875,"CJ-II-m-B-07343","CJ","II","m","B",7343,127,"CLUJ",54975,"municipiu","CLUJ-NAPOCA",54984,"CLUJ-NAPOCA","Casă",46.77127,23.595395,345,"Str. luliu Maniu 40, Str.Baba Novac 4",,400095,,,"Patrimoniu domestic urban","Clădire de locuit (unifamilială, colectivă ș.a.)","Locuire civilă","sec. XIX",,,,"Stare medie",,
820,"CJ-II-m-B-07344","CJ","II","m","B",7344,127,"CLUJ",54975,"municipiu","CLUJ-NAPOCA",54984,"CLUJ-NAPOCA","Casă",46.76706,23.588701,351,"Str. Fortăreței 8",,400091,,,"Patrimoniu domestic urban","Clădire de locuit (unifamilială, colectivă ș.a.)","Locuire civilă","sec. XVI",,,,"Stare medie",,
821,"CJ-II-m-B-07345","CJ","II","m","B",7345,127,"CLUJ",54975,"municipiu","CLUJ-NAPOCA",54984,"CLUJ-NAPOCA","Gara Cluj-Napoca",46.784369,23.586346,338,"Piața Gării 1",,400201,,,"Patrimoniu transporturilor","Clădire pentru transport (gară, autogară ș.a.)",,1870,,,,"Stare bună",,
822,"CJ-II-m-B-07346","CJ","II","m","B",7346,127,"CLUJ",54975,"municipiu","CLUJ-NAPOCA",54984,"CLUJ-NAPOCA","Palatul Berde",46.774444,23.58713,338,"Str. Horea 1",,400174,,,"Patrimoniu domestic urban","Clădire cu funcțiuni mixte (se precizează care funcțiuni și în ce proporție)",,"1889 -1900",,,,"Stare medie","În curs de restaurare.",
823,"CJ-II-m-B-07347","CJ","II","m","B",7347,127,"CLUJ",54975,"municipiu","CLUJ-NAPOCA",54984,"CLUJ-NAPOCA","Palatul Elian",46.774776,23.587682,338,"Str. Horea 2",,400038,,,"Patrimoniu domestic urban","Clădire cu funcțiuni mixte (se precizează care funcțiuni și în ce proporție)",,1891,,,,"Stare medie",,
824,"CJ-II-m-B-07348","CJ","II","m","B",7348,127,"CLUJ",54975,"municipiu","CLUJ-NAPOCA",54984,"CLUJ-NAPOCA","Casa de Comerț și Industrie",46.774586,23.586607,340,"Str. Horea 3",,400174,,,"Patrimoniu reprezentativ","Clădire financiar-comerț",,1903,,,,"Stare bună",,
825,"CJ-II-m-B-07349","CJ","II","m","B",7349,127,"CLUJ",54975,"municipiu","CLUJ-NAPOCA",54984,"CLUJ-NAPOCA","Casa Urania",46.775101,23.587541,339,"Str. Horea 4-6",,400038,,,"Patrimoniu reprezentativ","Clădire cu funcțiuni mixte (se precizează care funcțiuni și în ce proporție)",,1908,,,,"Stare medie",,
826,"CJ-II-m-B-07350","CJ","II","m","B",7350,127,"CLUJ",54975,"municipiu","CLUJ-NAPOCA",54984,"CLUJ-NAPOCA","Casă",46.775074,23.586984,339,"Str. Horea 5",,400174,,,"Patrimoniu reprezentativ","Clădire cu funcțiuni mixte (se precizează care funcțiuni și în ce proporție)",,1910,,,,"Stare medie",,
827,"CJ-II-m-B-07351","CJ","II","m","B",7351,127,"CLUJ",54975,"municipiu","CLUJ-NAPOCA",54984,"CLUJ-NAPOCA","Casă",46.776867,23.586817,341,"Str. Horea 19",,400174,,,"Patrimoniu domestic urban","Clădire de locuit (unifamilială, colectivă ș.a.)","Locuire civilă","sf. sec. XIX",,,,"Stare medie",,
828,"CJ-II-m-B-07352","CJ","II","m","B",7352,127,"CLUJ",54975,"municipiu","CLUJ-NAPOCA",54984,"CLUJ-NAPOCA","Facultatea de Filologie",46.778352,23.586541,342,"Str. Horea 31",,400202,,,"Patrimoniu reprezentativ","Clădire pentru învățământ",,1905,,,,"Stare medie",,
829,"CJ-II-m-B-07353","CJ","II","m","B",7353,127,"CLUJ",54975,"municipiu","CLUJ-NAPOCA",54984,"CLUJ-NAPOCA","Casă",46.779051,23.586924,341,"Str. Horea 35",,400202,,,"Patrimoniu domestic urban","Clădire de locuit (unifamilială, colectivă ș.a.)","Locuire civilă",1900,,,,"Stare medie",,
831,"CJ-II-m-B-07354","CJ","II","m","B",7354,127,"CLUJ",54975,"municipiu","CLUJ-NAPOCA",54984,"CLUJ-NAPOCA","Catedrala Arhiepiscopiei ortodoxe",46.771868,23.596365,347,"Piața Iancu Avram",,400098,,,"Patrimoniu religios","Clădire de cult","Catedrală","1923 - 1936",,,,"Stare medie","În curs de restaurare.",
837,"CJ-II-m-B-07356","CJ","II","m","B",7356,127,"CLUJ",54975,"municipiu","CLUJ-NAPOCA",54984,"CLUJ-NAPOCA","Casa Bogdanffy",46.76654,23.587381,355,"Str. Iancu Avram 1",,400089,,,"Patrimoniu domestic urban","Clădire de locuit (unifamilială, colectivă ș.a.)","Locuire civilă","sec. XVIII",,,,"Stare medie","În curs de restaurare.",
833,"CJ-II-m-B-07357","CJ","II","m","B",7357,127,"CLUJ",54975,"municipiu","CLUJ-NAPOCA",54984,"CLUJ-NAPOCA","Casă",46.772942,23.595911,341,"Piața Iancu Avram 14",,400116,,,"Patrimoniu religios","Clădire pentru învățământ",,"sec. XIX",,,,"Stare medie","Piața Iancu Avram nr. 14-15 -Colegiul Universitar Reformat Apafi Mihály.",
834,"CJ-II-m-B-07358","CJ","II","m","B",7358,127,"CLUJ",54975,"municipiu","CLUJ-NAPOCA",54984,"CLUJ-NAPOCA","Sediul Direcției regionale CFR",46.772522,23.596767,343,"Piața Iancu Avram 16",,400116,,,"Patrimoniu transporturilor","Clădire administrativă (primărie, prefectură, guvern, minister ș.a.)",,"sf. sec. XIX",,,,"Stare medie","Piața Iancu Avram 17",
835,"CJ-II-m-B-07359","CJ","II","m","B",7359,127,"CLUJ",54975,"municipiu","CLUJ-NAPOCA",54984,"CLUJ-NAPOCA","Arhiepiscopia ortodoxă a Vadului, Feleacului și Clujului",46.771915,23.597213,344,"Piața Iancu Avram 18A",,400116,,,"Patrimoniu religios","Clădire administrativă (primărie, prefectură, guvern, minister ș.a.)",,"sec. XIX",,,,"Stare medie",,
836,"CJ-II-m-B-07360","CJ","II","m","B",7360,127,"CLUJ",54975,"municipiu","CLUJ-NAPOCA",54984,"CLUJ-NAPOCA","Administrația Financiară",46.771357,23.597535,344,"Piața Iancu Avram 19 și str. Dorobanților 1",,400116,,,"Patrimoniu reprezentativ","Clădire administrativă (primărie, prefectură, guvern, minister ș.a.)",,"sec. XIX",,,,"Stare medie",,
839,"CJ-II-m-B-07361","CJ","II","m","B",7361,127,"CLUJ",54975,"municipiu","CLUJ-NAPOCA",54984,"CLUJ-NAPOCA","Casă",46.766219,23.589092,355,"Str. Iancu Avram 10-12",,400089,,,"Patrimoniu domestic urban","Clădire de locuit (unifamilială, colectivă ș.a.)","Locuire civilă","sec. XIX",,,,"Stare medie",,
841,"CJ-II-m-B-07362","CJ","II","m","B",7362,127,"CLUJ",54975,"municipiu","CLUJ-NAPOCA",54984,"CLUJ-NAPOCA","Tipografia Liceului reformat (zid de incintă medievală pe limita de parcelă)",46.766489,23.591121,355,"Str. Iancu Avram 13-15",,400083,,,"Patrimoniu reprezentativ","Clădire pentru învățământ",,"sec. XIX",,,,"Stare medie",,
842,"CJ-II-m-B-07363","CJ","II","m","B",7363,127,"CLUJ",54975,"municipiu","CLUJ-NAPOCA",54984,"CLUJ-NAPOCA","Casă",46.766152,23.589969,355,"Str. Iancu Avram 16-18",,400089,,,"Patrimoniu domestic urban","Clădire de locuit (unifamilială, colectivă ș.a.)","Locuire civilă",1938,,,,"Stare medie","Str. Iancu Avram 18.",
847,"CJ-II-m-B-07364","CJ","II","m","B",7364,127,"CLUJ",54975,"municipiu","CLUJ-NAPOCA",54984,"CLUJ-NAPOCA","Casă (zid de incintă medievală pe limita de parcelă)",46.767237,23.594584,350,"Str. Iancu Avram 27-29, Calea Dorobanților 19, Str. Kogălniceanu Mihail",,400083,,,"Patrimoniu domestic urban","Clădire de locuit (unifamilială, colectivă ș.a.)","Locuire civilă","sec. XIX",,,,"Stare medie","Str. Iancu Avram 27-29, Str. Kovács Dezső, Str. Kogălniceanu Mihail",
844,"CJ-II-m-B-07365","CJ","II","m","B",7365,127,"CLUJ",54975,"municipiu","CLUJ-NAPOCA",54984,"CLUJ-NAPOCA","Casă, fost hotel Biazini",46.766083,23.590491,355,"Str. Iancu Avram 20",,400089,,,"Patrimoniu reprezentativ","Clădire pentru turism",,"sec. XIX",,,,"Stare medie",,
845,"CJ-II-m-B-07366","CJ","II","m","B",7366,127,"CLUJ",54975,"municipiu","CLUJ-NAPOCA",54984,"CLUJ-NAPOCA","Casă",46.766698,23.592431,352,"Str. Iancu Avram 21",,400083,,,"Patrimoniu domestic urban","Clădire de locuit (unifamilială, colectivă ș.a.)","Locuire civilă","sec. XVIII",,,,"Stare medie",,
846,"CJ-II-m-B-07367","CJ","II","m","B",7367,127,"CLUJ",54975,"municipiu","CLUJ-NAPOCA",54984,"CLUJ-NAPOCA","Casă",46.76677,23.592648,351,"Str. Iancu Avram 23",,400083,,,"Patrimoniu domestic urban","Clădire de locuit (unifamilială, colectivă ș.a.)","Locuire civilă","înc. sec. XIX",,,,"Colaps","Nu mai există.",
848,"CJ-II-m-B-07368","CJ","II","m","B",7368,127,"CLUJ",54975,"municipiu","CLUJ-NAPOCA",54984,"CLUJ-NAPOCA","Casă",46.769752,23.585305,349,"Str. Isac Emil 4",,400023,,,"Patrimoniu domestic urban","Clădire de locuit (unifamilială, colectivă ș.a.)","Locuire civilă","sec. XX",,,,"Stare foarte bună",,
850,"CJ-II-m-B-07369","CJ","II","m","B",7369,127,"CLUJ",54975,"municipiu","CLUJ-NAPOCA",54984,"CLUJ-NAPOCA","Casă cu elemente de decorațiune interioară în stil Secession",46.771237,23.584902,344,"Str. Isac Emil 14",,400023,,,"Patrimoniu domestic urban","Clădire de locuit (unifamilială, colectivă ș.a.)","Locuire civilă",1904,,,,"Stare medie",,
851,"CJ-II-m-B-07370","CJ","II","m","B",7370,127,"CLUJ",54975,"municipiu","CLUJ-NAPOCA",54984,"CLUJ-NAPOCA","Universitatea ""Babeș Bolyai""",46.767642,23.59131,354,"Str. Kogălniceanu Mihail 1",,400084,,,"Patrimoniu reprezentativ","Clădire pentru învățământ",,"1893 - 1903",,,,"Stare bună",,
853,"CJ-II-m-B-07372","CJ","II","m","B",7372,127,"CLUJ",54975,"municipiu","CLUJ-NAPOCA",54984,"CLUJ-NAPOCA","Casă (zid incinta medievală pe limita de parcelă)",46.767317,23.592035,353,"Str. Kogălniceanu Mihail 4",,400084,,,"Patrimoniu domestic urban","Clădire de locuit (unifamilială, colectivă ș.a.)","Locuire civilă","1789 -1800",,,,"Stare medie",,
854,"CJ-II-m-B-07373","CJ","II","m","B",7373,127,"CLUJ",54975,"municipiu","CLUJ-NAPOCA",54984,"CLUJ-NAPOCA","Casă",46.767788,23.592934,349,"Str. Kogălniceanu Mihail 5",,400084,,,"Patrimoniu domestic urban","Clădire de locuit (unifamilială, colectivă ș.a.)","Locuire civilă","1789 -1800",,,,"Stare medie",,
855,"CJ-II-m-B-07374","CJ","II","m","B",7374,127,"CLUJ",54975,"municipiu","CLUJ-NAPOCA",54984,"CLUJ-NAPOCA","Casă (zid de incintă medievală pe limita de parcelă)",46.767401,23.592447,351,"Str. Kogălniceanu Mihail 6",,400084,,,"Patrimoniu domestic urban","Clădire de locuit (unifamilială, colectivă ș.a.)","Locuire civilă","sec. XVIII",,,,"Stare medie",,
857,"CJ-II-m-B-07376","CJ","II","m","B",7376,127,"CLUJ",54975,"municipiu","CLUJ-NAPOCA",54984,"CLUJ-NAPOCA","Liceul ""Emil Racoviță""",46.768018,23.594139,348,"Str. Kogălniceanu Mihail 9-11",,400084,,,"Patrimoniu domestic urban","Clădire pentru învățământ",,"sec. XVI - XIX",,,,"Stare medie",,
858,"CJ-II-m-B-07377","CJ","II","m","B",7377,127,"CLUJ",54975,"municipiu","CLUJ-NAPOCA",54984,"CLUJ-NAPOCA","Arhivele Statului Cluj-Napoca (zid de incintă medievală pe limita de parcelă)",46.76759,23.593212,348,"Str. Kogălniceanu Mihail 10",,400084,,,"Patrimoniu reprezentativ","Clădire cu destinație specială (poliție, S.R.I., armată ș.a.)",,"sec. XVIII",,,,"Stare medie",,
866,"CJ-II-m-B-07378.04","CJ","II","m","B",7378.04,127,"CLUJ",54975,"municipiu","CLUJ-NAPOCA",54984,"CLUJ-NAPOCA","Casă",46.768235,23.595049,348,"Str. Kogălniceanu Mihail 19",,400084,,,"Patrimoniu domestic urban","Clădire de locuit (unifamilială, colectivă ș.a.)","Locuire civilă","1790 -1802",,,,"Stare medie",,
861,"CJ-II-m-B-07379","CJ","II","m","B",7379,127,"CLUJ",54975,"municipiu","CLUJ-NAPOCA",54984,"CLUJ-NAPOCA","Colegiul reformat, azi Liceul Ady Șincai",46.767888,23.594778,348,"Str. Kogălniceanu Mihail 14",,400084,,,"Patrimoniu reprezentativ","Clădire pentru învățământ",,"sec. XVII",,,,"Stare medie",,
865,"CJ-II-m-B-07381","CJ","II","m","B",7381,127,"CLUJ",54975,"municipiu","CLUJ-NAPOCA",54984,"CLUJ-NAPOCA","Tipografia Colegiului reformat",46.768263,23.596716,344,"Str. Kogălniceanu Mihail 18",,400084,,,"Patrimoniu reprezentativ","Clădire pentru învățământ",,"sec. XVIII",,,,"Stare medie",,
867,"CJ-II-m-B-07382","CJ","II","m","B",7382,127,"CLUJ",54975,"municipiu","CLUJ-NAPOCA",54984,"CLUJ-NAPOCA","Casa parohială a bisericii reformate",46.76848,23.595738,346,"Str. Kogălniceanu Mihail 23",,400084,,,"Patrimoniu domestic urban","Clădire de locuit (unifamilială, colectivă ș.a.)","Locuire civilă",1751,,,,"Stare medie",,
871,"CJ-II-m-B-07384","CJ","II","m","B",7384,127,"CLUJ",54975,"municipiu","CLUJ-NAPOCA",54984,"CLUJ-NAPOCA","Casă",46.770485,23.592052,347,"Str. Maniu iuliu 8 și str.Bolyai János 6",,400095,,,"Patrimoniu domestic urban","Clădire de locuit (unifamilială, colectivă ș.a.)","Locuire civilă","sec. XVIII-XIX",,,,"Stare foarte bună",,
872,"CJ-II-m-B-07385","CJ","II","m","B",7385,127,"CLUJ",54975,"municipiu","CLUJ-NAPOCA",54984,"CLUJ-NAPOCA","Casă",46.770736,23.592227,346,"Str. Maniu luliu 9",,400095,,,"Patrimoniu domestic urban","Clădire de locuit (unifamilială, colectivă ș.a.)","Locuire civilă","sec. XVI - XIX",,,,"Stare bună",,
873,"CJ-II-m-B-07386","CJ","II","m","B",7386,127,"CLUJ",54975,"municipiu","CLUJ-NAPOCA",54984,"CLUJ-NAPOCA","Casa în care s-a născut Carol Popp de Szathmary",46.77099,23.593214,342,"Str. Maniu luliu 17",,400095,,,"Patrimoniu domestic urban","Clădire de locuit (unifamilială, colectivă ș.a.)","Locuire civilă","sec. XVIII",,,,"Stare bună",,
874,"CJ-II-m-B-07387","CJ","II","m","B",7387,127,"CLUJ",54975,"municipiu","CLUJ-NAPOCA",54984,"CLUJ-NAPOCA","Casă",46.771078,23.594563,344,"Str. Maniu luliu 34",,400095,,,"Patrimoniu domestic urban","Clădire de locuit (unifamilială, colectivă ș.a.)","Locuire civilă","sec. XVIII",,,,"Stare foarte bună",,
877,"CJ-II-m-B-07389","CJ","II","m","B",7389,127,"CLUJ",54975,"municipiu","CLUJ-NAPOCA",54984,"CLUJ-NAPOCA","Casă",46.770309,23.588081,347,"Str. Matei Corvin 1 și str. Memorandumului 2",,400112,,,"Patrimoniu domestic urban","Clădire de locuit (unifamilială, colectivă ș.a.)","Locuire civilă","sec. XVIII",,,,"Stare foarte bună",,
878,"CJ-II-m-B-07390","CJ","II","m","B",7390,127,"CLUJ",54975,"municipiu","CLUJ-NAPOCA",54984,"CLUJ-NAPOCA","Casă",46.770445,23.588316,346,"Str. Matei Corvin 2 și Piața Unirii 18",,400112,,,"Patrimoniu domestic urban","Clădire de locuit (unifamilială, colectivă ș.a.)","Locuire civilă","sec. XVI - XX",,,,"Stare bună","Dublă înregistrare -v. CJ-II-m-B-07486",
879,"CJ-II-m-B-07391","CJ","II","m","B",7391,127,"CLUJ",54975,"municipiu","CLUJ-NAPOCA",54984,"CLUJ-NAPOCA","Casă",46.77078,23.587689,346,"Str. Matei Corvin 3",,400112,,,"Patrimoniu reprezentativ","Clădire de locuit (unifamilială, colectivă ș.a.)","Locuire civilă","sec. XVIII",,,,"Stare bună",,
880,"CJ-II-m-B-07392","CJ","II","m","B",7392,127,"CLUJ",54975,"municipiu","CLUJ-NAPOCA",54984,"CLUJ-NAPOCA","Casa principelui Transilvaniei Ștefan Bocskay, azi Universitatea ""Sapientia"" (fragmente din zidul incintei medieval în subsol)",46.770911,23.587896,346,"Str. Matei Corvin 4",,400112,,,"Patrimoniu reprezentativ","Clădire de locuit (unifamilială, colectivă ș.a.)","Locuire civilă","sec. XVI - XIX",,,,"Stare foarte bună",,
882,"CJ-II-m-B-07394","CJ","II","m","B",7394,127,"CLUJ",54975,"municipiu","CLUJ-NAPOCA",54984,"CLUJ-NAPOCA","Vama veche",46.762869,23.572495,352,"Str. Mănășturului 1",,400372,,,"Patrimoniu administrativ","Clădire cu destinație specială (poliție, S.R.I., armată ș.a.)",,1748,,,,"Stare medie","Calea Mănăștur nr. 1.",
883,"CJ-II-m-B-07395","CJ","II","m","B",7395,127,"CLUJ",54975,"municipiu","CLUJ-NAPOCA",54984,"CLUJ-NAPOCA","Mănăstirea iezuită",46.762015,23.570149,355,"Str. Mănășturului 9",,400372,,,"Patrimoniu religios","Clădire de cult","Mănăstire","sec. XVI",,,,"Stare medie","Calea Mănăștur nr. 9.",
885,"CJ-II-m-B-07397","CJ","II","m","B",7397,127,"CLUJ",54975,"municipiu","CLUJ-NAPOCA",54984,"CLUJ-NAPOCA","Banca ""Alpha""",46.77002,23.588292,347,"Str. Memorandumului 1",,400114,,,"Patrimoniu reprezentativ","Clădire financiar-comerț",,1893,,,,"Stare bună",,
886,"CJ-II-m-B-07399","CJ","II","m","B",7399,127,"CLUJ",54975,"municipiu","CLUJ-NAPOCA",54984,"CLUJ-NAPOCA","Casă",46.770088,23.587663,347,"Str. Memorandumului 6",,400114,,,"Patrimoniu domestic urban","Clădire de locuit (unifamilială, colectivă ș.a.)","Locuire civilă","sec. XIX",,,,"Stare medie",,
887,"CJ-II-m-B-07400","CJ","II","m","B",7400,127,"CLUJ",54975,"municipiu","CLUJ-NAPOCA",54984,"CLUJ-NAPOCA","Casă",46.769776,23.58762,348,"Str. Memorandumului 7",,400114,,,"Patrimoniu domestic urban","Clădire de locuit (unifamilială, colectivă ș.a.)","Locuire civilă","sec. XVIII-XX",,,,"Stare medie",,
888,"CJ-II-m-B-07401","CJ","II","m","B",7401,127,"CLUJ",54975,"municipiu","CLUJ-NAPOCA",54984,"CLUJ-NAPOCA","Casă",46.770021,23.587473,348,"Str. Memorandumului 8",,400114,,,"Patrimoniu domestic urban","Clădire de locuit (unifamilială, colectivă ș.a.)","Locuire civilă",1846,,,,"Stare medie",,
889,"CJ-II-m-B-07402","CJ","II","m","B",7402,127,"CLUJ",54975,"municipiu","CLUJ-NAPOCA",54984,"CLUJ-NAPOCA","Casă",46.769572,23.587283,349,"Str. Memorandumului 11-13 și str. Rațiu Ion 2, str. Memorandumului 11 -13",,400114,,,"Patrimoniu domestic urban","Clădire de locuit (unifamilială, colectivă ș.a.)","Locuire civilă","sec. XVI - XIX",,,,"Stare medie",,
890,"CJ-II-m-B-07403","CJ","II","m","B",7403,127,"CLUJ",54975,"municipiu","CLUJ-NAPOCA",54984,"CLUJ-NAPOCA","Sediul fostei Casine române, azi locuință",46.76982,23.587027,349,"Str. Memorandumului 12",,400114,,,"Patrimoniu reprezentativ","Clădire cu alte funcțiuni",,"sec. XVIII",,,,"Stare medie",,
891,"CJ-II-m-B-07404","CJ","II","m","B",7404,127,"CLUJ",54975,"municipiu","CLUJ-NAPOCA",54984,"CLUJ-NAPOCA","Casă",46.769492,23.587108,349,"Str. Memorandumului 15",,400114,,,"Patrimoniu domestic urban","Clădire de locuit (unifamilială, colectivă ș.a.)","Locuire civilă","sec. XVI - XVII",,,,"Stare medie",,
892,"CJ-II-m-B-07405","CJ","II","m","B",7405,127,"CLUJ",54975,"municipiu","CLUJ-NAPOCA",54984,"CLUJ-NAPOCA","Casă",46.769419,23.586992,349,"Str. Memorandumului 17",,400114,,,"Patrimoniu domestic urban","Clădire de locuit (unifamilială, colectivă ș.a.)","Locuire civilă","sec. XIX",,,,"Stare medie",,
893,"CJ-II-m-B-07406","CJ","II","m","B",7406,127,"CLUJ",54975,"municipiu","CLUJ-NAPOCA",54984,"CLUJ-NAPOCA","Casă",46.769361,23.586873,350,"Str. Memorandumului 19",,400114,,,"Patrimoniu domestic urban","Clădire de locuit (unifamilială, colectivă ș.a.)","Locuire civilă","sec. XVIII",,,,"Stare medie",,
894,"CJ-II-m-B-07407","CJ","II","m","B",7407,127,"CLUJ",54975,"municipiu","CLUJ-NAPOCA",54984,"CLUJ-NAPOCA","Casa în care s-a judecat procesul memorandiștilor, azi Muzeul Etnografic al Transilvaniei ('""Reduta"")",46.769254,23.586609,350,"Str. Memorandumului 21",,400114,,,"Patrimoniu reprezentativ","Clădire administrativă (primărie, prefectură, guvern, minister ș.a.)",,"1810-1812",,,,"Stare bună",,
895,"CJ-II-m-B-07408","CJ","II","m","B",7408,127,"CLUJ",54975,"municipiu","CLUJ-NAPOCA",54984,"CLUJ-NAPOCA","Casă, azi Liceul economic",46.76952,23.586302,350,"Str. Memorandumului 22",,400114,,,"Patrimoniu reprezentativ","Clădire pentru învățământ",,1788,,,,"Stare bună","Școala Ioan Bob.",
896,"CJ-II-m-B-07409","CJ","II","m","B",7409,127,"CLUJ",54975,"municipiu","CLUJ-NAPOCA",54984,"CLUJ-NAPOCA","Casă",46.769431,23.586085,350,"Str. Memorandumului 23",,400114,,,"Patrimoniu domestic urban","Clădire de locuit (unifamilială, colectivă ș.a.)","Locuire civilă",1740,,,,"Stare medie",,
897,"CJ-II-m-B-07410","CJ","II","m","B",7410,127,"CLUJ",54975,"municipiu","CLUJ-NAPOCA",54984,"CLUJ-NAPOCA","Casă",46.767589,23.589205,350,"Str. Micu Klein I. 6",,400087,,,"Patrimoniu domestic urban","Clădire de locuit (unifamilială, colectivă ș.a.)","Locuire civilă","sf. sec. XVIII",,,,"Stare foarte bună",,
898,"CJ-II-m-B-07411","CJ","II","m","B",7411,127,"CLUJ",54975,"municipiu","CLUJ-NAPOCA",54984,"CLUJ-NAPOCA","Casă",46.767369,23.588221,351,"Str. Micu Klein I. 12",,400087,,,"Patrimoniu domestic urban","Clădire de locuit (unifamilială, colectivă ș.a.)","Locuire civilă","sec. XVIII",,,,"Stare medie",,
899,"CJ-II-m-B-07412","CJ","II","m","B",7412,127,"CLUJ",54975,"municipiu","CLUJ-NAPOCA",54984,"CLUJ-NAPOCA","Casă",46.76716,23.588183,351,"Str. Micu Klein I. 15",,400087,,,"Patrimoniu domestic urban","Clădire de locuit (unifamilială, colectivă ș.a.)","Locuire civilă","sec. XVIII-XIX",,,,"Stare bună",,
900,"CJ-II-m-B-07413","CJ","II","m","B",7413,127,"CLUJ",54975,"municipiu","CLUJ-NAPOCA",54984,"CLUJ-NAPOCA","Casă",46.767185,23.588038,351,"Str. Micu Klein I. 17",,400087,,,"Patrimoniu domestic urban","Clădire de locuit (unifamilială, colectivă ș.a.)","Locuire civilă","sec. XIX",,,,"Stare bună",,
901,"CJ-II-m-B-07414","CJ","II","m","B",7414,127,"CLUJ",54975,"municipiu","CLUJ-NAPOCA",54984,"CLUJ-NAPOCA","Casă",46.768194,23.586585,351,"Str. Micu Samuil 8",,400014,,,"Patrimoniu domestic urban","Clădire de locuit (unifamilială, colectivă ș.a.)","Locuire civilă","sec. XVIII-XIX",,,,"Stare medie","În curs de restaurare.",
902,"CJ-II-m-B-07416","CJ","II","m","B",7416,127,"CLUJ",54975,"municipiu","CLUJ-NAPOCA",54984,"CLUJ-NAPOCA","Prefectura județului Cluj",46.768379,23.584724,350,"Calea Moților 1-3",,400001,,,"Patrimoniu administrativ","Clădire administrativă (primărie, prefectură, guvern, minister ș.a.)",,"sec. XIX",,,,"Stare bună","Primăria municipiului Cluj-Napoca.",
903,"CJ-II-m-B-07417","CJ","II","m","B",7417,127,"CLUJ",54975,"municipiu","CLUJ-NAPOCA",54984,"CLUJ-NAPOCA","Casă",46.768959,23.584884,350,"Calea Moților 4",,400003,,,"Patrimoniu domestic urban","Clădire de locuit (unifamilială, colectivă ș.a.)","Locuire civilă","sec. XVIII",,,,"Stare medie","În curs de restaurare.",
904,"CJ-II-m-B-07418","CJ","II","m","B",7418,127,"CLUJ",54975,"municipiu","CLUJ-NAPOCA",54984,"CLUJ-NAPOCA","Casă",46.768756,23.584552,349,"Calea Moților 8",,400003,,,"Patrimoniu domestic urban","Clădire de locuit (unifamilială, colectivă ș.a.)","Locuire civilă","sec. XIX",,,,"Stare medie",,
905,"CJ-II-m-B-07419","CJ","II","m","B",7419,127,"CLUJ",54975,"municipiu","CLUJ-NAPOCA",54984,"CLUJ-NAPOCA","Casă",46.767747,23.582676,344,"Calea Moților 24",,400003,,,"Patrimoniu domestic urban","Clădire de locuit (unifamilială, colectivă ș.a.)","Locuire civilă",1832,,,,"Stare medie",,
906,"CJ-II-m-B-07420","CJ","II","m","B",7420,127,"CLUJ",54975,"municipiu","CLUJ-NAPOCA",54984,"CLUJ-NAPOCA","Casă",46.767217,23.582275,344,"Calea Moților 27",,400001,,,"Patrimoniu domestic urban","Clădire de locuit (unifamilială, colectivă ș.a.)","Locuire civilă","sec. XIX",,,,"Stare medie",,
907,"CJ-II-m-B-07421","CJ","II","m","B",7421,127,"CLUJ",54975,"municipiu","CLUJ-NAPOCA",54984,"CLUJ-NAPOCA","Casă",46.767129,23.582118,344,"Calea Moților 29",,400001,,,"Patrimoniu domestic urban","Clădire administrativă (primărie, prefectură, guvern, minister ș.a.)",,"sec. XIX",,,,"Stare medie",,
908,"CJ-II-m-B-07422","CJ","II","m","B",7422,127,"CLUJ",54975,"municipiu","CLUJ-NAPOCA",54984,"CLUJ-NAPOCA","Casa în care a locuit Ilie Măcelaru",46.767254,23.581686,344,"Calea Moților 32",,400003,,,"Patrimoniu domestic urban","Clădire de locuit (unifamilială, colectivă ș.a.)","Locuire civilă","sec. XIX",,,,"Stare medie","Integrată în parterul unei clinici private.",
909,"CJ-II-m-B-07423","CJ","II","m","B",7423,127,"CLUJ",54975,"municipiu","CLUJ-NAPOCA",54984,"CLUJ-NAPOCA","Casă",46.76651,23.580022,344,"Calea Moților 54",,400370,,,"Patrimoniu domestic urban","Clădire de locuit (unifamilială, colectivă ș.a.)","Locuire civilă","sec. XIX",,,,"Stare medie",,
910,"CJ-II-m-B-07424","CJ","II","m","B",7424,127,"CLUJ",54975,"municipiu","CLUJ-NAPOCA",54984,"CLUJ-NAPOCA","Casă",46.765667,23.578582,346,"Calea Moților 69",,400370,,,"Patrimoniu domestic urban","Clădire de locuit (unifamilială, colectivă ș.a.)","Locuire civilă","sec. XVIII",,,,"Stare medie",,
911,"CJ-II-m-B-07425","CJ","II","m","B",7425,127,"CLUJ",54975,"municipiu","CLUJ-NAPOCA",54984,"CLUJ-NAPOCA","Casă",46.765838,23.578099,345,"Calea Moților 70",,400370,,,"Patrimoniu domestic urban","Clădire de locuit (unifamilială, colectivă ș.a.)","Locuire civilă","sec. XIX",,,,"Stare medie",,
912,"CJ-II-m-B-07426","CJ","II","m","B",7426,127,"CLUJ",54975,"municipiu","CLUJ-NAPOCA",54984,"CLUJ-NAPOCA","Liceu",46.765403,23.576733,345,"Calea Moților 82",,400370,,,"Patrimoniu reprezentativ","Clădire pentru învățământ",,1900,,,,"Stare medie",,
913,"CJ-II-m-B-07427","CJ","II","m","B",7427,127,"CLUJ",54975,"municipiu","CLUJ-NAPOCA",54984,"CLUJ-NAPOCA","Biserica reformată",46.765076,23.575415,346,"Calea Moților 84",,400370,,,"Patrimoniu religios","Clădire de cult","Biserică",1913,,,,"Stare bună",,
914,"CJ-II-m-B-07428","CJ","II","m","B",7428,127,"CLUJ",54975,"municipiu","CLUJ-NAPOCA",54984,"CLUJ-NAPOCA","Casă",46.764677,23.574555,346,"Calea Moților 94",,400370,,,"Patrimoniu domestic urban","Clădire de locuit (unifamilială, colectivă ș.a.)","Locuire civilă","sec. XVIII-XIX",,,,"Stare medie",,
915,"CJ-II-m-B-07429","CJ","II","m","B",7429,127,"CLUJ",54975,"municipiu","CLUJ-NAPOCA",54984,"CLUJ-NAPOCA","Casă",46.764148,23.573772,347,"Calea Moților 104",,400370,,,"Patrimoniu domestic urban","Clădire de locuit (unifamilială, colectivă ș.a.)","Locuire civilă","sec. XVIII",,,,"Stare medie",,
916,"CJ-II-m-B-07430","CJ","II","m","B",7430,127,"CLUJ",54975,"municipiu","CLUJ-NAPOCA",54984,"CLUJ-NAPOCA","Casă",46.763633,23.573652,349,"Calea Moților 137",,400370,,,"Patrimoniu domestic urban","Clădire de locuit (unifamilială, colectivă ș.a.)","Locuire civilă","sec. XVIII",,,,"Stare medie",,
917,"CJ-II-m-B-07431","CJ","II","m","B",7431,127,"CLUJ",54975,"municipiu","CLUJ-NAPOCA",54984,"CLUJ-NAPOCA","Casă",46.765864,23.601603,357,"Str. Mureșanu Andrei 15",,400071,,,"Patrimoniu domestic urban","Clădire de locuit (unifamilială, colectivă ș.a.)","Locuire civilă","sec. XX",,,,"Stare foarte bună",,
918,"CJ-II-m-B-07432","CJ","II","m","B",7432,127,"CLUJ",54975,"municipiu","CLUJ-NAPOCA",54984,"CLUJ-NAPOCA","Casă",46.766394,23.600614,357,"Str. Mureșanu Andrei 16",,400071,,,"Patrimoniu domestic urban","Clădire de locuit (unifamilială, colectivă ș.a.)","Locuire civilă",1911,,,,"Stare bună",,
919,"CJ-II-m-B-07433","CJ","II","m","B",7433,127,"CLUJ",54975,"municipiu","CLUJ-NAPOCA",54984,"CLUJ-NAPOCA","Casă",46.7658,23.601033,359,"Str. Mureșanu Andrei 20",,400071,,,"Patrimoniu domestic urban","Clădire de locuit (unifamilială, colectivă ș.a.)","Locuire civilă",1906,,,,"Stare bună",,
920,"CJ-II-m-B-07434","CJ","II","m","B",7434,127,"CLUJ",54975,"municipiu","CLUJ-NAPOCA",54984,"CLUJ-NAPOCA","Palatul Mikes",46.771909,23.587193,346,"Piața Muzeului 4",,400019,,,"Patrimoniu reprezentativ","Clădire de locuit (unifamilială, colectivă ș.a.)","Locuire civilă","sec. XVIII",,,,"Stare medie","În curs de restaurare.",
921,"CJ-II-m-B-07435","CJ","II","m","B",7435,127,"CLUJ",54975,"municipiu","CLUJ-NAPOCA",54984,"CLUJ-NAPOCA","Casă",46.771834,23.58698,346,"Piața Muzeului 5",,400019,,,"Patrimoniu domestic urban","Clădire de locuit (unifamilială, colectivă ș.a.)","Locuire civilă","sec. XVII - XX",,,,"Stare medie",,
922,"CJ-II-m-B-07436","CJ","II","m","B",7436,127,"CLUJ",54975,"municipiu","CLUJ-NAPOCA",54984,"CLUJ-NAPOCA","Hotel ""Continental""",46.768526,23.589691,351,"Str. Napoca 1",,400088,,,"Patrimoniu reprezentativ","Clădire pentru turism",,1895,,,,"Stare medie",,
923,"CJ-II-m-B-07437","CJ","II","m","B",7437,127,"CLUJ",54975,"municipiu","CLUJ-NAPOCA",54984,"CLUJ-NAPOCA","Palatul Bornemisza",46.768664,23.589377,350,"Str. Napoca 2-4 și Piața Unirii 9",,400009,,,"Patrimoniu reprezentativ","Clădire cu alte funcțiuni","Locuire civilă","sec. XV - XIX",,,,"Stare bună","Dublă înregistrare -v. CJ-II-m-B-07478",
924,"CJ-II-m-B-07438","CJ","II","m","B",7438,127,"CLUJ",54975,"municipiu","CLUJ-NAPOCA",54984,"CLUJ-NAPOCA","Casă",46.768369,23.589259,350,"Str. Napoca 3",,400088,,,"Patrimoniu domestic urban","Clădire de locuit (unifamilială, colectivă ș.a.)","Locuire civilă","sec. XVIII-XIX",,,,"Stare medie",,
925,"CJ-II-m-B-07439","CJ","II","m","B",7439,127,"CLUJ",54975,"municipiu","CLUJ-NAPOCA",54984,"CLUJ-NAPOCA","Casă",46.768261,23.589067,350,"Str. Napoca 5",,400088,,,"Patrimoniu domestic urban","Clădire de locuit (unifamilială, colectivă ș.a.)","Locuire civilă","sec. XVIII-XIX",,,,"Stare medie",,
934,"CJ-II-m-B-07440","CJ","II","m","B",7440,127,"CLUJ",54975,"municipiu","CLUJ-NAPOCA",54984,"CLUJ-NAPOCA","Casă",46.768369,23.588702,350,"Str. Napoca 68",,400009,,,"Patrimoniu domestic urban","Clădire de locuit (unifamilială, colectivă ș.a.)","Locuire civilă","sec. XVIIII",,,,"Stare medie","Str. Napoca 6.",
926,"CJ-II-m-B-07441","CJ","II","m","B",7441,127,"CLUJ",54975,"municipiu","CLUJ-NAPOCA",54984,"CLUJ-NAPOCA","Casă",46.768156,23.588905,350,"Str. Napoca 7",,400088,,,"Patrimoniu domestic urban","Clădire de locuit (unifamilială, colectivă ș.a.)","Locuire civilă","sec. XIX",,,,"Stare medie",,
927,"CJ-II-m-B-07442","CJ","II","m","B",7442,127,"CLUJ",54975,"municipiu","CLUJ-NAPOCA",54984,"CLUJ-NAPOCA","Casă",46.768086,23.588756,350,"Str. Napoca 9",,400088,,,"Patrimoniu domestic urban","Clădire de locuit (unifamilială, colectivă ș.a.)","Locuire civilă","sec. XVI-XVIII",,,,"Stare medie",,
928,"CJ-II-m-B-07443","CJ","II","m","B",7443,127,"CLUJ",54975,"municipiu","CLUJ-NAPOCA",54984,"CLUJ-NAPOCA","Casă",46.767949,23.587768,350,"Str. Napoca 10",,400009,,,"Patrimoniu domestic urban","Clădire de locuit (unifamilială, colectivă ș.a.)","Locuire civilă","sec. XIX",,,,"Stare medie",,
929,"CJ-II-m-B-07444","CJ","II","m","B",7444,127,"CLUJ",54975,"municipiu","CLUJ-NAPOCA",54984,"CLUJ-NAPOCA","Institutul de Istorie Națională",46.768024,23.588542,350,"Str. Napoca 11",,400088,,,"Patrimoniu reprezentativ","Clădire pentru învățământ",,"sec. XVIII-XIX",,,,"Stare bună",,
930,"CJ-II-m-B-07445","CJ","II","m","B",7445,127,"CLUJ",54975,"municipiu","CLUJ-NAPOCA",54984,"CLUJ-NAPOCA","Casă",46.767896,23.587611,350,"Str. Napoca 12",,400009,,,"Patrimoniu domestic urban","Clădire de locuit (unifamilială, colectivă ș.a.)","Locuire civilă",1905,,,,"Stare medie",,
931,"CJ-II-m-B-07446","CJ","II","m","B",7446,127,"CLUJ",54975,"municipiu","CLUJ-NAPOCA",54984,"CLUJ-NAPOCA","Casă",46.767838,23.587488,350,"Str. Napoca 14",,400009,,,"Patrimoniu domestic urban","Clădire de locuit (unifamilială, colectivă ș.a.)","Locuire civilă","sec. XVIII-XIX",,,,"Stare medie",,
932,"CJ-II-m-B-07447","CJ","II","m","B",7447,127,"CLUJ",54975,"municipiu","CLUJ-NAPOCA",54984,"CLUJ-NAPOCA","Casă",46.767823,23.588152,350,"Str. Napoca 15",,400088,,,"Patrimoniu domestic urban","Clădire de locuit (unifamilială, colectivă ș.a.)","Locuire civilă","sec. XVIII",,,,"Stare bună",,
933,"CJ-II-m-B-07448","CJ","II","m","B",7448,127,"CLUJ",54975,"municipiu","CLUJ-NAPOCA",54984,"CLUJ-NAPOCA","Casă",46.767712,23.586957,350,"Str. Napoca 18",,400009,,,"Patrimoniu domestic urban","Clădire de locuit (unifamilială, colectivă ș.a.)","Locuire civilă","sec. XVIII",,,,"Stare medie","Posibil se referă la Str. Samuil Micu nr. 12.",
935,"CJ-II-m-B-07449","CJ","II","m","B",7449,127,"CLUJ",54975,"municipiu","CLUJ-NAPOCA",54984,"CLUJ-NAPOCA","Casă",46.78116,23.599187,333,"Str. Paris 79",,400055,,,"Patrimoniu domestic urban","Clădire de locuit (unifamilială, colectivă ș.a.)","Locuire civilă",1920,,,,"Stare foarte bună",,
936,"CJ-II-m-B-07450","CJ","II","m","B",7450,127,"CLUJ",54975,"municipiu","CLUJ-NAPOCA",54984,"CLUJ-NAPOCA","Clinica medicală",46.761642,23.584847,391,"Str. Pasteur 1",,400349,,,"Patrimoniu reprezentativ","Clădire pentru sănătate",,1900,,,,"Stare bună",,
937,"CJ-II-m-B-07451","CJ","II","m","B",7451,127,"CLUJ",54975,"municipiu","CLUJ-NAPOCA",54984,"CLUJ-NAPOCA","Institutul de Igienă",46.76237,23.583911,387,"Str. Pasteur 6",,400349,,,"Patrimoniu reprezentativ","Clădire pentru sănătate",,1900,,,,"Stare bună",,
939,"CJ-II-m-B-07452","CJ","II","m","B",7452,127,"CLUJ",54975,"municipiu","CLUJ-NAPOCA",54984,"CLUJ-NAPOCA","Casă",46.770829,23.587137,346,"Str. Petroșani 2",,400022,,,"Patrimoniu domestic urban","Clădire de locuit (unifamilială, colectivă ș.a.)","Locuire civilă","sec. XVI - XIX",,,,"Stare bună","Str. Virgil Fulicea 2.",
943,"CJ-II-m-B-07453","CJ","II","m","B",7453,127,"CLUJ",54975,"municipiu","CLUJ-NAPOCA",54984,"CLUJ-NAPOCA","Casă",46.766785,23.587243,354,"Str. Republicii 7",,400015,,,"Patrimoniu domestic urban","Clădire de locuit (unifamilială, colectivă ș.a.)","Locuire civilă","sec. XX",,,,"Stare bună","În curs de restaurare.",
944,"CJ-II-m-B-07454","CJ","II","m","B",7454,127,"CLUJ",54975,"municipiu","CLUJ-NAPOCA",54984,"CLUJ-NAPOCA","Casă",46.762728,23.589368,390,"Str. Republicii 41",,400015,,,"Patrimoniu domestic urban","Clădire de locuit (unifamilială, colectivă ș.a.)","Locuire civilă","sec. XX",,,,"Stare foarte bună",,
946,"CJ-II-m-B-07456","CJ","II","m","B",7456,127,"CLUJ",54975,"municipiu","CLUJ-NAPOCA",54984,"CLUJ-NAPOCA","Casă",46.760212,23.590769,410,"Str. Republicii 68",,400489,,,"Patrimoniu domestic urban","Clădire de locuit (unifamilială, colectivă ș.a.)","Locuire civilă",1930,,,,"Stare bună",,
947,"CJ-II-m-B-07457","CJ","II","m","B",7457,127,"CLUJ",54975,"municipiu","CLUJ-NAPOCA",54984,"CLUJ-NAPOCA","Casă",46.771018,23.587316,347,"Str. Roosevelt F.D. 2",,400021,,,"Patrimoniu domestic urban","Clădire de locuit (unifamilială, colectivă ș.a.)","Locuire civilă","sec. XVI - XIX",,,,"Stare bună",,
949,"CJ-II-m-B-07459","CJ","II","m","B",7459,127,"CLUJ",54975,"municipiu","CLUJ-NAPOCA",54984,"CLUJ-NAPOCA","Casă",46.767655,23.586751,350,"Str. Șincai Gheorghe 17",,400004,,,"Patrimoniu domestic urban","Clădire de locuit (unifamilială, colectivă ș.a.)","Locuire civilă",1907,,,,"Stare bună",,
950,"CJ-II-m-B-07460","CJ","II","m","B",7460,127,"CLUJ",54975,"municipiu","CLUJ-NAPOCA",54984,"CLUJ-NAPOCA","Cazarma ""Sf. Gheorghe""",46.769372,23.599121,346,"Piața Ștefan cel Mare 3",,400133,,,"Patrimoniu reprezentativ","Clădiri cu caracter militar (fortificații, cetăți etc.)",,"1834 -1837",,,,"Stare bună",,
952,"CJ-II-m-B-07462","CJ","II","m","B",7462,127,"CLUJ",54975,"municipiu","CLUJ-NAPOCA",54984,"CLUJ-NAPOCA","Teatrul Maghiar",46.772493,23.584014,341,"Aleea Tineretului",,400376,,,"Patrimoniu reprezentativ","Clădire cu alte funcțiuni",,"1912-1913",,,,"Stare bună","Splaiul Independenței.",
956,"CJ-II-m-B-07465","CJ","II","m","B",7465,127,"CLUJ",54975,"municipiu","CLUJ-NAPOCA",54984,"CLUJ-NAPOCA","Casă",46.769188,23.593038,346,"Str. Tomis 1",,400134,,,"Patrimoniu domestic urban","Clădire de locuit (unifamilială, colectivă ș.a.)","Locuire civilă","sec. XV - XIX",,,,"Stare bună","Hermann Oberth 1.",
957,"CJ-II-m-B-07466","CJ","II","m","B",7466,127,"CLUJ",54975,"municipiu","CLUJ-NAPOCA",54984,"CLUJ-NAPOCA","Casă",46.771245,23.587987,347,"Str. Toplița 1-3",,400419,,,"Patrimoniu domestic urban","Clădire de locuit (unifamilială, colectivă ș.a.)","Locuire civilă",1820,,,,"Stare bună","Strada Sextil Pușcariu 1-3. A nu se confunda cu Aleea Toplița!",
958,"CJ-II-m-B-07467","CJ","II","m","B",7467,127,"CLUJ",54975,"municipiu","CLUJ-NAPOCA",54984,"CLUJ-NAPOCA","Casă",46.77132,23.588259,347,"Str. Toplița 5",,400419,,,"Patrimoniu domestic urban","Clădire de locuit (unifamilială, colectivă ș.a.)","Locuire civilă",1796,,,,"Stare medie","În curs de restaurare.",
959,"CJ-II-m-B-07468","CJ","II","m","B",7468,127,"CLUJ",54975,"municipiu","CLUJ-NAPOCA",54984,"CLUJ-NAPOCA","Casă",46.771429,23.588736,347,"Str. Toplița 10",,400419,,,"Patrimoniu domestic urban","Clădire de locuit (unifamilială, colectivă ș.a.)","Locuire civilă","sec. XVIII",,,,"Stare foarte bună","Posibil alterat puternic sau înlocuit.",
961,"CJ-II-m-B-07470","CJ","II","m","B",7470,127,"CLUJ",54975,"municipiu","CLUJ-NAPOCA",54984,"CLUJ-NAPOCA","Primăria veche",46.769041,23.591254,349,"Piața Unirii 1",,400133,,,"Patrimoniu administrativ","Clădire administrativă (primărie, prefectură, guvern, minister ș.a.)",,"1843 -1846",,,,"Stare bună",,
962,"CJ-II-m-B-07471","CJ","II","m","B",7471,127,"CLUJ",54975,"municipiu","CLUJ-NAPOCA",54984,"CLUJ-NAPOCA","Casă",46.768955,23.591016,349,"Piața Unirii 2",,400133,,,"Patrimoniu domestic urban","Clădire de locuit (unifamilială, colectivă ș.a.)","Locuire civilă","sec. XVI-XVIII",,,,"Stare medie","În curs de restaurare.",
963,"CJ-II-m-B-07472","CJ","II","m","B",7472,127,"CLUJ",54975,"municipiu","CLUJ-NAPOCA",54984,"CLUJ-NAPOCA","Casă",46.768909,23.590909,349,"Piața Unirii 3",,400133,,,"Patrimoniu domestic urban","Clădire de locuit (unifamilială, colectivă ș.a.)","Locuire civilă","sec. XVIII",,,,"Stare medie",,
964,"CJ-II-m-B-07473","CJ","II","m","B",7473,127,"CLUJ",54975,"municipiu","CLUJ-NAPOCA",54984,"CLUJ-NAPOCA","Casă",46.768882,23.590795,349,"Piața Unirii 4",,400133,,,"Patrimoniu domestic urban","Clădire de locuit (unifamilială, colectivă ș.a.)","Locuire civilă","sec. XVI",,,,"Stare medie",,
965,"CJ-II-m-B-07474","CJ","II","m","B",7474,127,"CLUJ",54975,"municipiu","CLUJ-NAPOCA",54984,"CLUJ-NAPOCA","Casă",46.768869,23.590685,349,"Piața Unirii 5",,400133,,,"Patrimoniu domestic urban","Clădire de locuit (unifamilială, colectivă ș.a.)","Locuire civilă","sec. XVI",,,,"Stare medie",,
966,"CJ-II-m-B-07475","CJ","II","m","B",7475,127,"CLUJ",54975,"municipiu","CLUJ-NAPOCA",54984,"CLUJ-NAPOCA","Casă",46.768823,23.590566,349,"Piața Unirii 6",,400133,,,"Patrimoniu domestic urban","Clădire de locuit (unifamilială, colectivă ș.a.)","Locuire civilă","sec. XVI - XIX",,,,"Stare medie",,
967,"CJ-II-m-B-07476","CJ","II","m","B",7476,127,"CLUJ",54975,"municipiu","CLUJ-NAPOCA",54984,"CLUJ-NAPOCA","Banca Națională",46.768803,23.590379,350,"Piața Unirii 7",,400133,,,"Patrimoniu reprezentativ","Clădire financiar-comerț",,"sec. XX",,,,"Stare medie",,
968,"CJ-II-m-B-07477","CJ","II","m","B",7477,127,"CLUJ",54975,"municipiu","CLUJ-NAPOCA",54984,"CLUJ-NAPOCA","Palatul Sebestyen",46.768711,23.590135,350,"Piața Unirii 8 și str. Universității 1-3",,400015,,,"Patrimoniu reprezentativ","Clădire cu funcțiuni mixte (se precizează care funcțiuni și în ce proporție)",,"1912-1913",,,,"Stare medie",,
969,"CJ-II-m-B-07478","CJ","II","m","B",7478,127,"CLUJ",54975,"municipiu","CLUJ-NAPOCA",54984,"CLUJ-NAPOCA","Palatul Bornemisza, fost și sediu al Societății teatrale maghiare din Ardeal",46.768801,23.589375,350,"Piața Unirii 9 și str. Napoca 2-4",,400015,,,"Patrimoniu reprezentativ","Clădire cu alte funcțiuni",,"sec. XVIII-XIX",,,,"Stare bună","Dublă înregistrare -v. CJ-II-m-B-07437",
970,"CJ-II-m-B-07479","CJ","II","m","B",7479,127,"CLUJ",54975,"municipiu","CLUJ-NAPOCA",54984,"CLUJ-NAPOCA","Casa Teleki",46.768937,23.589157,349,"Piața Unirii 10",,400015,,,"Patrimoniu reprezentativ","Clădire de locuit (unifamilială, colectivă ș.a.)","Locuire civilă",1827,,,,"Stare bună",,
971,"CJ-II-m-B-07480","CJ","II","m","B",7480,127,"CLUJ",54975,"municipiu","CLUJ-NAPOCA",54984,"CLUJ-NAPOCA","Casa în care a locuit Bőlőni Farcas Sándor",46.769114,23.589049,348,"Piața Unirii 11",,400015,,,"Patrimoniu domestic urban","Clădire de locuit (unifamilială, colectivă ș.a.)","Locuire civilă","sec. XVIII",,,,"Stare medie",,
972,"CJ-II-m-B-07481","CJ","II","m","B",7481,127,"CLUJ",54975,"municipiu","CLUJ-NAPOCA",54984,"CLUJ-NAPOCA","Casă",46.769198,23.588999,348,"Piața Unirii 12",,400015,,,"Patrimoniu domestic urban","Clădire de locuit (unifamilială, colectivă ș.a.)","Locuire civilă","sec. XVI - XIX",,,,"Stare medie",,
973,"CJ-II-m-B-07482","CJ","II","m","B",7482,127,"CLUJ",54975,"municipiu","CLUJ-NAPOCA",54984,"CLUJ-NAPOCA","Casă",46.769347,23.588897,348,"Piața Unirii 13",,400113,,,"Patrimoniu domestic urban","Clădire de locuit (unifamilială, colectivă ș.a.)","Locuire civilă","sec. XVI - XIX",,,,"Stare medie",,
974,"CJ-II-m-B-07483","CJ","II","m","B",7483,127,"CLUJ",54975,"municipiu","CLUJ-NAPOCA",54984,"CLUJ-NAPOCA","Casă",46.76946,23.588758,347,"Piața Unirii 14",,400015,,,"Patrimoniu domestic urban","Clădire de locuit (unifamilială, colectivă ș.a.)","Locuire civilă","sec. XV - XIX",,,,"Stare medie",,
975,"CJ-II-m-B-07484","CJ","II","m","B",7484,127,"CLUJ",54975,"municipiu","CLUJ-NAPOCA",54984,"CLUJ-NAPOCA","Casa parohială a bisericii romano-catolice",46.769595,23.588687,347,"Piața Unirii 15",,400113,,,"Patrimoniu religios","Clădire de locuit (unifamilială, colectivă ș.a.)","Locuire civilă","sec. XV-XVIII",,,,"Stare bună",,
976,"CJ-II-m-B-07485","CJ","II","m","B",7485,127,"CLUJ",54975,"municipiu","CLUJ-NAPOCA",54984,"CLUJ-NAPOCA","Casă",46.769786,23.588503,347,"Piața Unirii 16",,400015,,,"Patrimoniu domestic urban","Clădire de locuit (unifamilială, colectivă ș.a.)","Locuire civilă","sec. XIX",,,,"Stare bună",,
977,"CJ-II-m-B-07486","CJ","II","m","B",7486,127,"CLUJ",54975,"municipiu","CLUJ-NAPOCA",54984,"CLUJ-NAPOCA","Casă",46.770388,23.588349,346,"Piața Unirii 18",,400113,,,"Patrimoniu domestic urban","Clădire de locuit (unifamilială, colectivă ș.a.)","Locuire civilă","sec. XVI",,,,"Stare medie","Dublă înregistrare -v. CJ-II-m-B-07390",
978,"CJ-II-m-B-07487","CJ","II","m","B",7487,127,"CLUJ",54975,"municipiu","CLUJ-NAPOCA",54984,"CLUJ-NAPOCA","Casă",46.770436,23.588467,346,"Piața Unirii 19",,400113,,,"Patrimoniu domestic urban","Clădire de locuit (unifamilială, colectivă ș.a.)","Locuire civilă","sec. XVIII",,,,"Stare medie",,
979,"CJ-II-m-B-07488","CJ","II","m","B",7488,127,"CLUJ",54975,"municipiu","CLUJ-NAPOCA",54984,"CLUJ-NAPOCA","Casă",46.770504,23.588598,346,"Piața Unirii 20",,400113,,,"Patrimoniu domestic urban","Clădire de locuit (unifamilială, colectivă ș.a.)","Locuire civilă","sec. XIX",,,,"Stare medie",,
980,"CJ-II-m-B-07489","CJ","II","m","B",7489,127,"CLUJ",54975,"municipiu","CLUJ-NAPOCA",54984,"CLUJ-NAPOCA","Casă",46.770588,23.588693,346,"Piața Unirii 21",,400113,,,"Patrimoniu domestic urban","Clădire de locuit (unifamilială, colectivă ș.a.)","Locuire civilă","sec. XVI - XX",,,,"Stare bună",,
981,"CJ-II-m-B-07490","CJ","II","m","B",7490,127,"CLUJ",54975,"municipiu","CLUJ-NAPOCA",54984,"CLUJ-NAPOCA","Casă",46.770669,23.588782,346,"Piața Unirii 22",,400113,,,"Patrimoniu domestic urban","Clădire de locuit (unifamilială, colectivă ș.a.)","Locuire civilă","sec. XVIII",,,,"Stare medie",,
982,"CJ-II-m-B-07491","CJ","II","m","B",7491,127,"CLUJ",54975,"municipiu","CLUJ-NAPOCA",54984,"CLUJ-NAPOCA","Imobil administrativ",46.770755,23.589006,347,"Piața Unirii 23",,400113,,,"Patrimoniu administrativ","Clădire administrativă (primărie, prefectură, guvern, minister ș.a.)",,1883,,,,"Stare medie",,
983,"CJ-II-m-B-07492","CJ","II","m","B",7492,127,"CLUJ",54975,"municipiu","CLUJ-NAPOCA",54984,"CLUJ-NAPOCA","Imobil administrativ",46.770852,23.589211,347,"Piața Unirii 24",,400113,,,"Patrimoniu administrativ","Clădire administrativă (primărie, prefectură, guvern, minister ș.a.)",,1883,,,,"Stare bună",,
985,"CJ-II-m-B-07493","CJ","II","m","B",7493,127,"CLUJ",54975,"municipiu","CLUJ-NAPOCA",54984,"CLUJ-NAPOCA","Casă",46.77094,23.589525,347,"Piața Unirii 26",,400113,,,"Patrimoniu domestic urban","Clădire de locuit (unifamilială, colectivă ș.a.)","Locuire civilă","sec. XVIII-XIX",,,,"Stare medie",,
986,"CJ-II-m-B-07494","CJ","II","m","B",7494,127,"CLUJ",54975,"municipiu","CLUJ-NAPOCA",54984,"CLUJ-NAPOCA","Casă",46.771002,23.589655,347,"Piața Unirii 27",,400113,,,"Patrimoniu domestic urban","Clădire de locuit (unifamilială, colectivă ș.a.)","Locuire civilă","sec. XVIII",,,,"Stare medie",,
987,"CJ-II-m-B-07495","CJ","II","m","B",7495,127,"CLUJ",54975,"municipiu","CLUJ-NAPOCA",54984,"CLUJ-NAPOCA","Muzeul Farmaciei",46.771156,23.589714,347,"Piața Unirii 28 și str. Doja Gheorghe 1",,400113,,,"Patrimoniu reprezentativ","Clădire cu alte funcțiuni",,"sec. XV-XVIII",,,,"Stare medie","Piața Unirii 28 și str. Regele Ferdinand 1. În curs de restaurare.",
991,"CJ-II-m-B-07500","CJ","II","m","B",7500,127,"CLUJ",54975,"municipiu","CLUJ-NAPOCA",54984,"CLUJ-NAPOCA","Casă",46.76778,23.589944,352,"Str. Universității 6",,400091,,,"Patrimoniu domestic urban","Clădire de locuit (unifamilială, colectivă ș.a.)","Locuire civilă","sec. XVI - XIX",,,,"Stare medie",,
992,"CJ-II-m-B-07501","CJ","II","m","B",7501,127,"CLUJ",54975,"municipiu","CLUJ-NAPOCA",54984,"CLUJ-NAPOCA","Claustrul mănăstirii Piariștilor și Convictus nobilium, azi internatul liceului Báthory (zid de incintă medievală pe limita de parcelă)",46.767141,23.590739,354,"Str. Universității 7-9 și str. Brătianu 2",,400091,,,"Patrimoniu religios","Clădire de cult","Mănăstire",1735,,,,"Stare medie","Str. Universității 7-9 și str. Mihail Kogălniceanu 2",
993,"CJ-II-m-B-07502","CJ","II","m","B",7502,127,"CLUJ",54975,"municipiu","CLUJ-NAPOCA",54984,"CLUJ-NAPOCA","Casă",46.767497,23.589976,352,"Str. Universității 8",,400091,,,"Patrimoniu domestic urban","Clădire de locuit (unifamilială, colectivă ș.a.)","Locuire civilă","sec. XVIII-XIX",,,,"Stare medie",,
994,"CJ-II-m-B-07503","CJ","II","m","B",7503,127,"CLUJ",54975,"municipiu","CLUJ-NAPOCA",54984,"CLUJ-NAPOCA","Seminarul Báthory - Apor, azi liceu",46.767138,23.589961,352,"Str. Universității 10",,400091,,,"Patrimoniu reprezentativ","Clădire pentru învățământ",,"1721- 1727",,,,"Stare medie",,
995,"CJ-II-m-B-07504","CJ","II","m","B",7504,127,"CLUJ",54975,"municipiu","CLUJ-NAPOCA",54984,"CLUJ-NAPOCA","Biserica romano-catolică ""Sf. Elisabeta""",46.783939,23.654386,321,"Str. Vuia Traian 76, Cartier Someșeni",,400387,,,"Patrimoniu religios","Clădire de cult","Biserică",1700,,,,"Stare medie",,
996,"CJ-II-m-B-07505","CJ","II","m","B",7505,127,"CLUJ",54975,"municipiu","CLUJ-NAPOCA",54984,"CLUJ-NAPOCA","Casă",46.772013,23.589191,346,"Str. Zola Emile 1 și str.Gh.Doja 15",,400112,,,"Patrimoniu domestic urban","Clădire de locuit (unifamilială, colectivă ș.a.)","Locuire civilă","sec. XX",,,,"Stare foarte bună",,
997,"CJ-II-m-B-07506","CJ","II","m","B",7506,127,"CLUJ",54975,"municipiu","CLUJ-NAPOCA",54984,"CLUJ-NAPOCA","Monetăria veche",46.77194,23.588423,348,"Str. Zola Emile 4",,400112,,,"Patrimoniu reprezentativ","Clădire financiar-comerț",,1608,,,,"Stare foarte bună",,
998,"CJ-II-m-B-07507","CJ","II","m","B",7507,127,"CLUJ",54975,"municipiu","CLUJ-NAPOCA",54984,"CLUJ-NAPOCA","Casă",46.76587,23.600443,358,"Str. Zrinyi 7",,400071,,,"Patrimoniu domestic urban","Clădire de locuit (unifamilială, colectivă ș.a.)","Locuire civilă","sec. XX",,,,"Stare medie",,
830,"CJ-II-m-B-20937","CJ","II","m","B",20937,127,"CLUJ",54975,"municipiu","CLUJ-NAPOCA",54984,"CLUJ-NAPOCA","Casă secesion",46.770914,23.583841,342,"Str. Hosssu luliu, Cardinal 1",,400029,,,"Patrimoniu domestic urban","Clădire de locuit (unifamilială, colectivă ș.a.)","Locuire civilă","1902, extindere 1930",,,,"Stare medie",,
709,"CJ-II-s-B-07243","CJ","II","s","B",7243,127,"CLUJ",54975,"municipiu","CLUJ-NAPOCA",54984,"CLUJ-NAPOCA","Parcul Central",46.76938,23.577961,345,,,400376,,,"Patrimoniu reprezentativ","Amenajare peisajeră-agrement (parc, grădină, scuar ș.a.)",,1897,,,,"Stare foarte bună",,
953,"CJ-II-s-B-07463","CJ","II","s","B",7463,127,"CLUJ",54975,"municipiu","CLUJ-NAPOCA",54984,"CLUJ-NAPOCA","Parcul municipal",46.768829,23.573936,342,"Aleea Tineretului",,400376,,,"Patrimoniu reprezentativ","Amenajare peisajeră-agrement (parc, grădină, scuar ș.a.)",,1838,,,,"Stare bună","Splaiul Independenței.",
954,"CJ-II-s-B-07464","CJ","II","s","B",7464,127,"CLUJ",54975,"municipiu","CLUJ-NAPOCA",54984,"CLUJ-NAPOCA","Parcul luliu Hațieganu",46.766161,23.561595,347,"Aleea Tineretului 7",,400376,,,"Patrimoniu reprezentativ","Amenajare peisajeră-agrement (parc, grădină, scuar ș.a.)",,"sec. XX",,,,"Stare bună","Splaiul Independenței 7.",
1101,"CJ-II-a-A-07597","CJ","II","a","A",7597,127,"CLUJ",55008,"municipiu","DEJ",55017,"DEJ","Ansamblul urban ""Centrul istoric Dej""",47.1425651,23.8753923,,"Zona delimitată de str. Titulescu, de la nr.16 la nr. 4, pe fundul de parcelă, str. Parcului, frontul vestic către Someș, Casina militară, limita parcelei nordice și estice, aleea pietonală de la nord de Tribunalul Dej, până la pârâul Salca, malul drept al pârâului Salca până la str. Mărășești, str. Mărășești frontul vestic, de la pod până la str. 1 Mai, limita estică si sudică a parcelei, str. Regina Maria nr.12, pârâul Salca, malul drept între str. 1 Mai și Crișan, str. Crișan frontul vestic, între pârâul Salca și str. Gutinului, limita sudică a parcelei din str. Gutinului nr.1l, limita dintre parcelele din str. Gutinului nr.12 și 10, limita dintre parcelele din str. Mioriței nr.10 și 12, str. Mioriței frontul sudic, limita dintre parcelele din str. Mioriței nr.2 si Piața Ștefan cel Mare nr.1, fundul de parcelă din Piața Ștefan cel mare nr.1 și 2A, limita sudică ș i vestică a parcelei din str. înfrățirii nr.1 (sinagoga), Piața Ștefan cel Mare frontul vestic, str. Aurel Vlaicu frontul vestic. Piața Lupeni frontul de parcelă de la nr.21 A până la nr.3, limita sudică și vestică a parcelei din Piața Lupeni nr.4, limita sudică a parcelei din str. Traian nr.1, limita dintre parcelele din str. Traian nr. 3 și 5, limita dintre parcelele din str. Traian nr.4 și 6, limita nordică a parcelei din str. Traian nr.4, limita dintre parcelele din str. lorga nr.4 si 6, frontul sud-estic al Pieței agro-alimentare, limita dintre parcelele din str. Titulescu nr. 7 și 9, str. Titulescu frontul sudic, limita estică, sudică și vestică a parcelei din str. Titulescu nr.17, până la limita vestică a parcelei din str. Titulescu nr.16.",,405200,,,"Patrimoniu reprezentativ",,,"sec. XVIII-XIX",,,,"Stare medie",,
1106,"CJ-II-a-A-07600","CJ","II","a","A",7600,127,"CLUJ",55008,"municipiu","DEJ",55017,"DEJ","Mănăstirea franciscană",47.142766,23.876493,240,"Piața Bobâlna 16",,405200,,,"Patrimoniu religios","Clădire de cult","Mănăstire","sec. XVIII",,,,"Stare medie",,
